{
    "earthRadius"   : 3959.0,
    "places"        : [
        {"id": "atlat", "team": "t17", "name": "High Alpine Brewing Company", "municipality": "Gunnison", "latitude": "39.174930", "longitude": "-106.955120", "altitude": "10997"}
	,{"id": "cruzfm", "team": "t33", "name": "South Park Brewing", "municipality": "Fairplay", "latitude": "39.22031", "longitude": "-105.99261", "altitude": "9950"}
	,{"id": "awbrown0", "team": "t38", "name": "Breckenridge Brewery & Pub", "municipality": "Breckenridge", "latitude": "39.476208363683554", "longitude": "-106.04374235120592", "altitude": "9633"}
	,{"id": "jernberg", "team": "t23", "name": "Broken Compass Brewing", "municipality": "Breckenridge", "latitude": "39.51636970604681", "longitude": "-106.0536025249597", "altitude": "9623"}
	,{"id": "cross35", "team": "t34", "name": "Outer Range Brewing Co", "municipality": "Frisco", "latitude": "39.58944", "longitude": "-106.09915", "altitude": "9,200"}
	,{"id": "shliu", "team": "t25", "name": "The Noble Buck", "municipality": "Winter Park", "latitude": "39.92412263433858", "longitude": "-105.7863620851514", "altitude": "9121"}
	,{"id": "cgramey", "team": "t22", "name": "Paradox Beer Company", "municipality": "Divide", "latitude": "38.94437", "longitude": "-105.15521", "altitude": "9117"}
	,{"id": "boolinn", "team": "t15", "name": "Dillon DAM Brewery", "municipality": "Summit", "latitude": "39.627659", "longitude": "-106.060387", "altitude": "9111"}
	,{"id": "dineshg", "team": "t33", "name": "Sky High Brewing", "municipality": "Frisco", "latitude": "40.165460", "longitude": "-105.061300", "altitude": "9097"}
	,{"id": "kitten", "team": "t31", "name": "Irwin Brewing Company's Public House", "municipality": "Crested Butte", "latitude": "38.86973", "longitude": "-106.98740", "altitude": "8885"}
	,{"id": "driva", "team": "t11", "name": "Big Trout Brewing", "municipality": "Winter Park", "latitude": "39.91747", "longitude": "-105.78511", "altitude": "8812"}
	,{"id": "dschmuck", "team": "t29", "name": "Vicious Cycle Brewing Company", "municipality": "Fraser", "latitude": "39.941180", "longitude": "-105.807100", "altitude": "8579"}
	,{"id": "Dstreeb", "team": "t21", "name": "Golden Block Brewery", "municipality": "Silverton", "latitude": "37.4839", "longitude": "-107.3947", "altitude": "8508"}
	,{"id": "riggsx2", "team": "t27", "name": "Cabin Creek Brewing", "municipality": "Georgetown", "latitude": "39.723801", "longitude": "-105.692326", "altitude": "8451"}
	,{"id": "natebenn", "team": "t36", "name": "Busey Brews", "municipality": "Nederland", "latitude": "39.96180", "longitude": "-105.50891", "altitude": "8234"}
	,{"id": "toreskey", "team": "t37", "name": "Eddyline Brewery and Taproom", "municipality": "Buena Vista", "latitude": "38.840614", "longitude": "-106.132644", "altitude": "7960"}
	,{"id": "emsims", "team": "t31", "name": "T Road Brewing Company", "municipality": "Crestone", "latitude": "37.99418762159231", "longitude": "-105.69936317747097", "altitude": "7923"}
	,{"id": "wadem", "team": "t18", "name": "Aspen Brewing Company", "municipality": "Aspen", "latitude": "39.189784", "longitude": "-106.818409", "altitude": "7908"}
        ,{"id": "clayroby", "team": "t26", "name": "Three Barrels Brewing Company", "municipality": "Del Norte", "latitude": "37.678726", "longitude": "-106.356653", "altitude": "7874"}
	,{"id": "sofia02c", "team": "t20", "name": "High Alpine Brewing Company", "municipality": "Gunnison", "latitude": "38.54475", "longitude": "-106.92713", "altitude": "7703"}
	,{"id": "netsirt", "team": "t34", "name": "The Colorado Farm Brewery", "municipality": "Alamosa", "latitude": "37.4002033", "longitude": "-106.0010391", "altitude": "7585"}
	,{"id": "scott20", "team": "t33", "name": "Rock Cut Brewing Company", "municipality": "Estes Park", "latitude": "40.371828", "longitude": "-105.522949", "altitude": "7522"}
        ,{"id": "peasleed", "team": "t24", "name": "Grand Adventure Brewing Co.", "municipality": "Kremmling", "latitude": "40.0601681", "longitude": "-106.3930637", "altitude": "7357"}
	,{"id": "bli45", "team": "t21", "name": "Riff Raff Brewing Company", "municipality": "Pagosa Springs", "latitude": "37.269015", "longitude": "-107.007373", "altitude": "7171"}
	,{"id": "mikemc24", "team": "t16", "name": "Pikes Peak Brewing Company", "municipality": "Monument", "latitude": "39.095429", "longitude": "-104.860185", "altitude": "7136"}
	,{"id": "ejpitera", "team": "t26", "name": "Soulcraft Brewing", "municipality": "Salida", "latitude": "38.524444", "longitude": "-106.0061111111", "altitude": "7083"}
	,{"id": "pbmcg", "team": "t38", "name": "Mountain Merman Brewing Company", "municipality": "La veta", "latitude": "37.51", "longitude": "-105.01", "altitude": "7030"}
	,{"id": "dbh2001", "team": "t15", "name": "San Luis Valley Brewing Company", "municipality": "Alamosa", "latitude": "37.2805", "longitude": "-105.5201", "altitude": "6897"}
	,{"id": "jackwob", "team": "t37", "name": "Mountain Tap Brewery", "municipality": "Steamboat Springs", "latitude": "40.486549", "longitude": "-106.836990", "altitude": "6699"}
        ,{"id": "hsteve", "team": "t12", "name": "Storm Peak Brewing Company", "municipality": "Steamboat Springs", "latitude": "40.502218", "longitude": "-106.854965", "altitude": "6677"}
        ,{"id": "rossp", "team": "t30", "name": "Colorado Mountain Brewery", "municipality": "Colorado Springs", "latitude": "38.992820", "longitude": "-104.810554", "altitude": "6638"}
	,{"id": "minibray", "team": "t24", "name": "Eagle River Brewing Company", "municipality": "Gypsum", "latitude": "39.633020", "longitude": "-106.909170", "altitude": "6614"}
	,{"id": "qmeisman", "team": "t33", "name": "Anarchy Brewing Company", "municipality": "Durango", "latitude": "37.26481", "longitude": "-107.87361", "altitude": "6522"}
	,{"id": "bdunahu","team":"t27","name":"Ska Brewing Company","municipality":"Durango","latitude":"37.238849","longitude":"-107.876131","altitude":"6512"}
	,{"id": "kade5", "team": "t31", "name": "Animas Brewing Company", "municipality": "Durango", "latitude": "37.2799866", "longitude": "-107.8768544", "altitude": "6512"}
	,{"id": "glemicnt", "team": "t39", "name": "Yampa Valley Brewing Company", "municipality": "Hayden", "latitude": "40.535567", "longitude": "-107.550550", "altitude": "6434"}
	,{"id": "ethanju", "team": "t32", "name": "FH Beerworks", "municipality": "Colorado Springs", "latitude": "38.86770", "longitude": "-104.72193", "altitude": "6391"}
	,{"id": "tauren", "team": "t39", "name": "Trinity Brewing Company", "municipality": "Colorado Springs", "latitude": "38.897360", "longitude": "-104.855101", "altitude": "6372"}
	,{"id": "rocarrol", "team": "t38", "name": "Raices Brewing Company", "municipality": "Denver", "latitude": "39.73948", "longitude": "-105.01716", "altitude": "6326"}
	,{"id": "cdegen", "team": "t34", "name": "Great Divide Brewery & Roadhouse", "municipality": "Castle Rock", "latitude": "39.37178", "longitude": "-104.86045", "altitude": "6224"}
	,{"id": "dmcyde", "team": "t16", "name": "105 West Brewing Company", "municipality": "Castle Rock", "latitude": "39.3806825", "longitude": "-104.865804", "altitude": "6224"}
	,{"id": "pavanomp", "team": "t38", "name": "WildEdge Brewing Collective", "municipality": "Cortez", "latitude": "37.349972", "longitude": "-108.585663", "altitude": "6191"}
	,{"id": "alifayed", "team": "t30", "name": "OCC Brewing", "municipality": "Colorado Springs", "latitude": "38.8459045", "longitude": "-104.8602721", "altitude": "6104"}
	,{"id": "blakebri", "team": "t19", "name": "Bell Brothers Brewing", "municipality": "Colorado Springs", "latitude": "38.83580732", "longitude": "-104.82369864", "altitude": "6043"}
	,{"id": "coreydc", "team": "t37", "name": "Red Swing Brewhouse", "municipality": "Colorado Springs", "latitude": "38.82608281668586", "longitude": "-104.82374814602203", "altitude": "6033"}
        ,{"id": "rpcme", "team": "t28", "name": "Cannonball Creek Brewing Company", "municipality": "Golden", "latitude": "39.768578", "longitude": "-105.235097", "altitude": "5881"}
	,{"id": "goron117", "team": "t25", "name": "Barnett & Son Brewing Company", "municipality": "Parker", "latitude": "39.52224", "longitude": "-104.77501", "altitude": "5869"}
	,{"id": "kypes", "team": "t27", "name": "Downhill Brewing Company", "municipality": "Parker", "latitude": "39.52715", "longitude": "-104.77019", "altitude": "5869"}
	,{"id": "motley3", "team": "t17", "name": "Horsefly Brewing Company", "municipality": "Montrose", "latitude": "38.482931939772804", "longitude": "-107.8714099892221", "altitude": "5807"}
	,{"id": "elisong", "team": "t36", "name": "Two22 Brew", "municipality": "Centennial", "latitude": "39.3810", "longitude": "-104.4526", "altitude": "5804"}
        ,{"id": "jonwc", "team": "t23", "name": "Lone Tree Brewing Company", "municipality": "Lone Tree", "latitude": "39.562528", "longitude": "-104.892941", "altitude": "5778"}
        ,{"id": "martel", "team": "t25", "name": "Resolute Brewing Company", "municipality": "Centennial", "latitude": "39.584501", "longitude": "-104.884805", "altitude": "5777"}
	,{"id": "harvin", "team": "t13", "name": "Spice Trade Brewing Company", "municipality": "Greenwood Village", "latitude": "39.610060", "longitude": "-104.887780", "altitude": "5705"}
        ,{"id": "mattm936", "team": "t39", "name": "Molson Coors", "municipality": "Golden", "latitude": "39.767286", "longitude": "-105.228963", "altitude": "5675"}
	,{"id": "johnh9", "team": "t25", "name": "Coal Mine Ave Brewing Company", "municipality": "Littleton", "latitude": "39.596170", "longitude": "-105.106130", "altitude": "5670"}
	,{"id": "jakobp", "team": "t17", "name": "6 and 40 Brewery", "municipality": "Lakewood", "latitude": "39.73056", "longitude": "-105.1219", "altitude": "5624"}
        ,{"id": "voleskyj", "team": "t13", "name": "Ohm Brewing Company", "municipality": "Golden", "latitude": "39.74647712801897", "longitude": "-105.14412536924108", "altitude": "5600"}
	,{"id": "malinj", "team": "t18", "name": "A Bit Twisted Brewpub", "municipality": "Aurora", "latitude": "39.660833", "longitude": "-104.847778", "altitude": "5597"}
	,{"id": "omarwrs", "team": "t36", "name": "Old 121 Brewhouse", "municipality": "Lakewood", "latitude": "39.698200", "longitude": "-105.082387", "altitude": "5544"}
	,{"id": "cribbs", "team": "t21", "name": "Living The Dream Brewing Company", "municipality": "Littleton", "latitude": "39.54073131640608", "longitude": "-105.03981678579733", "altitude": "5541"}
	,{"id": "ahanna1", "team": "t29", "name": "Great Frontier Brewing Company", "municipality": "Lakewood", "latitude": "39.681505", "longitude": "-105.117626", "altitude": "5518"}
	,{"id": "aryanadv", "team": "t25", "name": "4 Noses Brewing Company", "municipality": "Broomfield", "latitude": "39.90665", "longitude": "-105.09865327408876", "altitude": "5515"}
	,{"id": "alexr11", "team": "t11", "name": "Green Mountain Beer Company", "municipality": "Lakewood", "latitude": "39.669090", "longitude": "-105.113120", "altitude": "5512"}
        ,{"id": "abby5655", "team": "t14", "name": "Bambei Brewing", "municipality": "Superior", "latitude": "39.95674", "longitude": "-105.16399", "altitude": "5499"}
	,{"id": "cjbeall", "team": "t26", "name": "Cervecería Colorado", "municipality": "Denver", "latitude": "39.75824506662939", "longitude": "-105.00750798832297", "altitude": "5485"}
	,{"id": "ally426", "team": "t18", "name": "Rocks & Hops Brewing", "municipality": "Boulder", "latitude": "40.0117", "longitude": "-105.1409", "altitude": "5430"}
        ,{"id": "eldridg", "team": "t20", "name": "Brewery Rickoli", "municipality": "Wheat Ridge", "latitude": "39.77597", "longitude": "-105.08192", "altitude": "5423"}
	,{"id": "jaispuro", "team": "t23", "name": "Southern Sun Pub & Brewery", "municipality": "Boulder", "latitude": "39.98432837686606", "longitude": "-105.24937565537086", "altitude": "5420"}
        ,{"id": "kmjager", "team": "t35", "name": "Rails End Beer Company", "municipality": "Broomfield", "latitude": "39.908633", "longitude": "-105.075117", "altitude": "5420"}
        ,{"id": "jacob3", "team": "t16", "name": "Fiction Beer Company", "municipality": "Denver", "latitude": "39.740334", "longitude": "-104.905694", "altitude": "5417"}
	,{"id": "TristanTruxal", "team": "t17", "name": "Banded Oak Brewing Company", "municipality": "Denver", "latitude": "39.72388", "longitude": "-104.98709", "altitude": "5417"}
	,{"id": "dmorigea", "team": "t28", "name": "Ursula Brewery", "municipality": "Aurora", "latitude": "39.7483128", "longitude": "-104.83804719999999", "altitude": "5415"}
	,{"id": "maxinego", "team": "t14", "name": "Cerebral Brewing (Aurora Arts)", "municipality": "Aurora", "latitude": "39.740889", "longitude": "-104.830027", "altitude ": "5403"}
        ,{"id": "sharling", "team": "t37", "name": "Launchpad Brewery", "municipality": "Aurora", "latitude": "39.70147695574206", "longitude": "-104.7901606193607", "altitude": "5403"}
	,{"id": "ryanc70", "team": "t27", "name": "Berkeley Alley Beer Company", "municipality": "Denver", "latitude": "39.776113", "longitude": "-105.043747", "altitude": "5400"}
	,{"id": "Tsyber", "team": "t31", "name": "The Grateful Gnome Sandwich Shoppe & Brewery", "municipality": "Denver", "latitude": "39.7764", "longitude": "-105.0432", "altitude": "5397"}
	,{"id": "jacopo","team": "t19", "name": "Hogshead Brewery", "municipality": "Denver", "latitude": "39.7583302", "longitude": "-105.0446342", "altitude": "5392"}
        ,{"id": "bachrock", "team": "t11", "name": "Windfall Brewing Company", "municipality": "Westminster", "latitude": "39.8931819", "longitude": "-105.083037", "altitude": "5364"}
        ,{"id": "ingjacob", "team": "t28", "name": "Satire Brewing Company", "municipality": "Thornton", "latitude": "39.917271", "longitude": "-104.983040", "altitude": "5351"}
	,{"id": "tamo", "team": "t26", "name": "World's End Brewing Company", "municipality": "Canon", "latitude": "38.4402777778", "longitude": "-105.2419444444", "altitude": "5351"}
	,{"id": "jpoppa", "team": "t36", "name": "Joyride Brewing Company", "municipality": "Edgewater", "latitude": "39.753134", "longitude": "-105.053452", "altitude": "5349"}
	,{"id": "yuj", "team": "t22", "name": "12Degree Brewing", "municipality": "Louisville", "latitude": "39.978273", "longitude": "-105.131921", "altitude": "5347"}
	,{"id": "dpoppa4", "team": "t38", "name": "Danico Brewing Company", "municipality": "Denver", "latitude": "39.815673", "longitude": "-104.771739", "altitude": "5342"}
        ,{"id": "aaouaj", "team": "t11", "name": "Second Dawn Brewing", "municipality": "Aurora", "latitude": "39.751464", "longitude": "-104.874902", "altitude": "5310"}
	,{"id": "cnading", "team": "t30", "name": "Dozens Brewery","municipality": "Denver", "latitude": "39.4409", "longitude": "-104.5921", "altitude": "5306"}
	,{"id": "krisbarn", "team": "t14", "name": "Wonderland Brewing Company", "municipality": "Broomfield", "latitude": "39.913502", "longitude": "-105.056061", "altitude": "5304"}	    
        ,{"id": "olivern", "team": "t22", "name": "Zuni Street Brewing Company", "municipality": "Denver", "latitude": "39.75939", "longitude": "-105.01518", "altitude": "5282"}
	,{"id": "Janette", "team": "t18", "name": "Alpine Dog Brewing Company", "municipality": "Denver", "latitude": "39.7430807", "longitude": "-104.9705853", "altitude": "5276"}
        ,{"id": "nael", "team": "t15", "name": "Baere Brewing Company", "municipality": "Denver", "latitude": "39.73168687", "longitude": "-104.9826502", "altitude": "5276"}
	,{"id": "tste", "team": "t23", "name": "Wynkoop Brewing Company", "municipality": "Denver", "latitude": "39.75341912645649", "longitude": "-104.99855134627802", "altitude": "5276"}
        ,{"id": "pie2003", "team": "t12", "name": "Grandma's House", "municipality": "Denver", "latitude": "39.68548", "longitude": "-104.98736", "altitude": "5274"}
	,{"id": "Jstaut53", "team": "t30", "name": "Dos Luces", "municipality": "Denver", "latitude": "39.694158", "longitude": "-104.987249", "altitude": "5269"}
	,{"id": "jasoncur", "team": "t16", "name": "Black Sky Brewery", "municipality": "Denver", "latitude": "39.72408", "longitude": "-104.99839", "altitude": "5265"}
        ,{"id": "bleple", "team": "t31", "name": "Altitude Brewing & Supply", "municipality": "Denver", "latitude": "39.7796433", "longitude": "-105.0067514", "altitude": "5255"}
	,{"id": "oli", "team": "t35", "name": "So Many Roads Museum and Brewery", "municipality": "Denver", "latitude": "39.71762", "longitude": "-104.99922", "altitude": "5238"}
	,{"id": "timand", "team": "t30", "name": "Pints Pub Brewery & Freehouse", "municipality": "Denver", "latitude": "39.736980", "longitude": "-104.990860", "altitude": "5236"}
	,{"id": "nfotis", "team": "t36", "name": "Bruz Beers", "municipality": "Denver", "latitude": "39.711660", "longitude": "-104.900660", "altitude": "5227.4"}
	,{"id": "mpoppa1", "team": "t12", "name": "Wild Provisions Beer Project" , "municipality": "Boulder", "latitude": "40.021681", "longitude": "-105.219027", "altitude": "5213"}
	,{"id": "jennifar", "team": "t20", "name": "Avery Brewing Company", "municipality": "Boulder", "latitude": "40.062586", "longitude": "-105.204699", "altitude": "5210"}
	,{"id": "sethhyde", "team": "t34", "name": "The Sandlot Brewery", "municipality": "Denver", "latitude": "39.75559", "longitude": "-104.99280", "altitude": "5206"}
	,{"id": "sereno", "team": "t32", "name": "Sparge Brewing", "municipality": "Wellington", "latitude": "40.68187144779669", "longitude": "-105.00183367743314", "altitude": "5200"}
        ,{"id": "anjoke", "team": "t11", "name": "14er Brewing & Beer Garden", "municipality": "Denver", "latitude": "39.76502831732196", "longitude": "-104.98016041640788", "altitude": "5194"}
	,{"id": "chris310", "team": "t35", "name": "New Belgium Brewing – The Woods at The Source", "municipality": "Denver", "latitude": "39.768704998521", "longitude": "-104.98052180121299", "altitude": "5190"}
	,{"id": "norwick", "team": "t12", "name": "Intersect Brewing", "municipality": "Fort Collins", "latitude": "40.554209", "longitude": "-105.117830", "altitude": "5098"}
	,{"id": "royaliz", "team": "t14", "name": "Fritz Family Brewers", "municipality": "Niwot", "latitude": "40.099860", "longitude": "-105.168398", "altitude": "5097"}
	,{"id": "jecircen", "team": "t15", "name": "Stodgy Brewing Company", "municipality": "Fort Collins", "latitude": "40.58954", "longitude": "-105.10858", "altitude": "5053"}
        ,{"id": "filip", "team": "t23", "name": "Berthoud Brewing Loveland", "municipality": "Loveland", "latitude": "40.40768", "longitude": "-105.12956", "altitude": "5049"}
	,{"id": "rollo", "team": "t32", "name": "The Handlebar Factory", "municipality": "Erie", "latitude": "40.04604794934224", "longitude": "-105.05605478954911", "altitude": "5048"}	
	,{"id": "tyseef", "team": "t37", "name": "Zwei Brewing Co.", "municipality": "Fort Collins", "latitude": "40.522710", "longitude": "-105.078185", "altitude": "5026"}
        ,{"id": "rnuguru", "team": "t22", "name": "Black Bottle Brewery", "municipality": "Fort Collins", "latitude": "40.5663803", "longitude": "-105.0786476", "altitude": "5006"}
	,{"id": "elleryno", "team": "t18", "name": "Envy Brewing", "municipality": "Fort Collins", "latitude": "40.52284913708447", "longitude": "-105.02121984684504", "altitude": "5003"}
	,{"id": "emmars", "team": "t35", "name": "Funkwerks", "municipality": "Fort Collins", "latitude": "40.583111", "longitude": "-105.042204", "altitude": "5003"}
        ,{"id": "ewc97712", "team": "t16", "name": "Prost Biergarten", "municipality": "Fort Collins", "latitude": "40.568148", "longitude": "-105.076515", "altitude": "5003"}
	,{"id": "ian1363", "team": "t15", "name": "Snowbank Brewing", "municipality": "Fort Collins", "latitude": "40.59016", "longitude": "-105.05821", "altitude": "5003"}
	,{"id": "frogman3", "team": "t34", "name": "Sky Bear Brewery and Pub", "municipality": "Loveland", "latitude": "40.39610", "longitude": "-105.07393", "altitude": "5000"}
	,{"id": "delta27", "team": "t21", "name": "Verboten Brewing & Barrel Project", "municipality": "Loveland", "latitude": "40.396824", "longitude": "-105.075219", "altitude": "4993"}
	,{"id": "gabimcd", "team": "t33", "name": "Maxline Brewing", "municipality": "Fort Collins", "latitude": "40.5497", "longitude": "-105.0793", "altitude": "4982"}
	,{"id": "truongak", "team": "t28", "name": "Mountain Cowboy Brewing Company", "municipality": "Frederick", "latitude": "40.098690", "longitude": "-104.938019", "altitude": "4980"}
	,{"id": "zakider", "team": "t39", "name": "Equinox Brewing Company", "municipality": "Fort Collins", "latitude": "40.586410", "longitude": "-105.075834", "altitude": "4980"}
	,{"id": "cookls", "team": "t35", "name": "Bootstrap Brewing Company", "municipality": "Longmont", "latitude": "40.161449", "longitude": "-105.106316", "altitude": "4979"}
  	,{"id": "gerardov","team": "t19", "name": "Knuckle Puck Brewery Kombucha & Beer", "municipality": "Longmont", "latitude": "40.2017984", "longitude": "-104.9768242", "altitude": "4979"}
	,{"id": "hridayab", "team": "t28", "name": "300 Suns Brewing", "municipality": "Longmont", "latitude": "40.1599201", "longitude": "-105.101274", "altitude": "4979"}
	,{"id": "jthiggin", "team": "t29", "name": "Wibby Brewing", "municipality": "Longmont", "latitude": "40.162431", "longitude": "-105.100185", "altitude": "4979"}
	,{"id": "arapport", "team": "t22", "name": "Mirror Image Brewing", "municipality": "Frederick", "latitude": "40.111690", "longitude": "-104.945500", "altitude": "4975"}
  	,{"id":"adavachi", "team":"t32","name":"Left Hand Brewing Company","municipality":"Longmont","latitude":"40.15849516304544","longitude":"-105.11496429492485","altitude":"4964"}
        ,{"id": "evanloy", "team": "t26", "name": "Odell Brewing Company", "municipality": "Fort Collins", "latitude": "40.58912", "longitude": "-105.06324", "altitude": "4964"}
	,{"id": "humaid99", "team": "t17", "name": "Verboten Brewing", "municipality": "Loveland", "latitude": "40.398857", "longitude": "-105.052643", "altitude": "4964"}    
	,{"id": "ballard2", "team": "t24", "name": "Großen Bart Brewery", "municipality": "Longmont", "latitude": "40.154415", "longitude": "-105.109234", "altitude": "4957"}
	,{"id": "ahuss12", "team": "t13", "name": "Collision Brewing Company & Restaurant", "municipality": "Longmont", "latitude": "40.157553", "longitude": "-105.033192", "altitude": "4947"}
	,{"id": "bmattes", "team": "t39", "name": "Horse and Dragon Brewing Company", "municipality": "Fort Collins", "latitude": "40.589662", "longitude": "-105.045625", "altitude": "4945"}
	,{"id": "cjsahlen", "team": "t13", "name": "DC Oakes Brewhouse and Eatery", "municipality": "Fort Collins", "latitude": "40.522711", "longitude": "-105.011722", "altitude": "4935"}
	,{"id": "evelynn", "team": "t35", "name": "Crabtree Brewing Company", "municipality": "Greeley", "latitude": "40.39083333", "longitude": "-104.72694444", "altitude": "4836"}
        ,{"id": "ver", "team": "t24", "name": "Rule105 Brewing Company", "municipality": "Greeley", "latitude": "40.4219313", "longitude": "-104.7576368", "altitude": "4806"}
	,{"id": "lnlarson", "team": "t20", "name": "Brues Alehouse Brewing Company" , "municipality": "Pueblo", "latitude": "38.265665", "longitude": "-104.610022", "altitude": "4692"}
        ,{"id": "erikrc", "team": "t27", "name": "WeldWerks Brewing Company", "municipality": "Greeley", "latitude": "40.42803", "longitude": "-104.69059", "altitude": "4675"}
	,{"id": "drakeem", "team": "t14", "name": "Trail Life Brewing", "municipality": "Grand Junction", "latitude": "39.067721", "longitude": "-108.565264", "altitude": "4612"}
        ,{"id": "ivans", "team": "t20", "name": "Kannah Creek: Edgewater Brewery", "municipality": "Grand Junction", "latitude": "39.055013", "longitude": "-108.557216", "altitude":"4603"}
	,{"id": "jacobrp", "team": "t24", "name": "Suds Brothers Brewery II", "municipality": "Fruita", "latitude": "39.15913", "longitude": "-108.73272", "altitude": "4514"}
	,{"id": "kedrick", "team": "t13", "name": "Copper Club Brewing Company", "municipality": "Fruita", "latitude": "39.160036", "longitude": "-108.732756", "altitude": "4503"}
        ,{"id": "birch1", "team": "t29", "name": "Tumbleweed Brewing and Wine Company", "municipality": "Yuma", "latitude": "40.12469104079743", "longitude": "-102.72420543220821", "altitude": "4144"}
	,{"id": "colekump", "team": "t32", "name": "Parts and Labor Brewing Company", "municipality": "Sterling", "latitude": "40.62503974", "longitude": "-103.20977744", "altitude": "3875"}    
        ,{"id": "davematt", "team": "t00", "name": "Steamworks Brewing Company", "municipality": "Durango", "latitude": "37.278887", "longitude": "-107.873908", "altitude": "0"}
        ,{"id": "spencebl", "team": "t00", "name": "Copper Kettle Brewing Company", "municipality": "Denver", "latitude": "39.69201", "longitude": "-104.8896", "altitude": "5485"}
		,{"id": "cdegen", "team": "t34", "name": "Avondale Brewing Company", "municipality": "Birmingham", "region": "Alabama", "latitude": "33.5247500", "longitude": "-86.7742009", "altitude": "597"}
        ,{"id": "atlat", "team": "t17", "name": "Cross-Eyed Owl Brewing Company", "municipality": "Decatur", "region": "Alabama", "latitude": "34.60521", "longitude": "-86.98661", "altitude": "610"}
        ,{"id": "Dstreeb", "team": "t21", "name": "Fairhope Brewing Company", "municipality": "Fairhope", "region": "Alabama", "latitude": "30.3057", "longitude": "-87.5305", "altitude": "120"}
        ,{"id": "aaouaj", "team": "t11", "name": "Iron Hand Brewing", "municipality": "Mobile", "region": "Alabama", "latitude": "30.695533", "longitude": "-88.045358", "altitude": "43"}
        ,{"id": "voleskyj", "team": "t13", "name": "Common Bond Brewers", "municipality": "Montgomery", "region": "Alabama", "latitude": "32.6312108325637", "longitude": "-86.28111110080427", "altitude": "171"}
        ,{"id": "rollo", "team": "t32", "name": "Bootleg Botanicals", "municipality": "Buckeye", "region": "Arizona", "latitude": "33.39010120062209", "longitude": "-112.58883482355058", "altitude": "869.4226"}
	,{"id": "cruzfm", "team": "t33", "name": "SanTan Brewing Company", "municipality": "Chandler", "region": "Arizona", "latitude": "33.303242", "longitude": "-111.842552", "altitude": "1211"}
	,{"id": "arapport", "team": "t22", "name": "Smelter Town Brewery", "municipality": "Clarkdale", "region": "Arizona", "latitude": "34.770880", "longitude": "-112.058430", "altitude": "3576"}
	,{"id": "motley3", "team": "t17", "name": "Flagstaff Brewing Company", "municipality": "Flagstaff", "region": "Arizona", "latitude": "35.197517", "longitude": "-111.648438", "altitude": "6910"}
        ,{"id": "kypes", "team": "t27", "name": "12 West Brewing Co.", "municipality": "Mesa", "region": "Arizona", "latitude": "33.41590", "longitude": "-111.83210", "altitude": "1326"}
	,{"id": "tste", "team": "t23", "name": "Firetruck Brewing Company", "municipality": "Oro Valley", "region": "Arizona", "latitude": "32.381534", "longitude": "-110.962819", "altitude": "2620"}
        ,{"id": "bleple", "team": "t31", "name": "Grand Avenue Brewing Company", "municipality": "Phoenix", "region": "Arizona", "latitude": "33.4558044", "longitude": "-112.0884833", "altitude": "1079"}
	,{"id": "humaid99", "team": "t17", "name": "Black Horse Brewery", "municipality": "Show Low", "region": "Arizona", "latitude": "34.0489", "longitude": "-111.093735", "altitude": "4100"}
        ,{"id": "jackwob", "team": "t37", "name": "Gravity BrewWorks", "municipality": "Big Flat", "region": "Arkansas", "latitude": "36.009630", "longitude": "-92.378830", "altitude": "1253"}
        ,{"id": "kitten", "team": "t31", "name": "Diamond Bear Brewing Company", "municipality": "North Little Rock", "region": "Arkansas", "latitude": "34.760480", "longitude": "-92.272660", "altitude": "335"}
        ,{"id": "cribbs", "team": "t21", "name": "Brewery X", "municipality": "Anaheim", "region": "California", "latitude": "33.85315403281916", "longitude": "-117.85463866268687", "altitude": "226"}
        ,{"id": "driva", "team": "t11", "name": "Firestone Walker Brewing Company", "municipality": "Buellton", "region": "California", "latitude": "34.64718", "longitude": "-120.19866", "altitude": "377"}
	,{"id": "dmorigea", "team": "t28", "name": "Danville Brewing Company", "municipality": "Danville", "region": "California", "latitude": "37.820988199999995", "longitude": "-122.00012260000001", "altitude": "362"}
        ,{"id": "evanloy", "team": "t26", "name": "Sudwerk Brewing Co.", "municipality": "Davis", "region": "California", "latitude": "38.54710", "longitude": "-121.72493", "altitude": "39"}
	,{"id": "yuj", "team": "t22", "name": "Three Weavers Brewing Company", "municipality": "Inglewood", "region": "California", "latitude": "33.9611336", "longitude": "-118.3746345", "altitude": "108.268"}
	,{"id": "bli45", "team": "t21", "name": "California Coast Beer Company", "municipality": "Paso Robles", "region": "California", "latitude": "35.630874", "longitude": "-120.687958", "altitude": "698"}
	,{"id": "sereno", "team": "t32", "name": "Lagunitas Brewing Company", "municipality": "Petaluma", "region": "California", "latitude": "38.27203", "longitude": "-122.66296", "altitude": "33"}
	,{"id": "gerardov", "team": "t19", "name": "Route 30 Brewing Company", "municipality": "Riverside", "region": "California", "latitude": "33.983643", "longitude": "-117.374913", "altitude": "860"}
        ,{"id": "hsteve", "team": "t12", "name": "Oak Park Brewing Company", "municipality": "Sacramento", "region": "California", "latitude": "38.5529", "longitude": "-121.4697", "altitude": "30"}
        ,{"id": "jonwc", "team": "t23", "name": "AleSmith Brewing Company", "municipality": "San Diego", "region": "California", "latitude": "32.888161", "longitude": "-117.149861", "altitude": "423"}
        ,{"id": "aryanadv", "team": "t25", "name": "Olfactory Brewing & Blending", "municipality": "San Francisco", "region": "California", "latitude": "37.761358", "longitude": "-122.388409", "altitude": "89"}
        ,{"id": "rnuguru", "team": "t22", "name": "ShaKa Brewing", "municipality": "Sunnyvale", "region": "California", "latitude": "37.376970", "longitude": "-122.012690", "altitude": "62.3"}
        ,{"id": "davematt", "team": "t00", "name": "New Belgium Brewing Company", "municipality": "Fort Collins", "region": "Colorado", "latitude": "40.5932376", "longitude": "-105.068601", "altitude": "4967"}
	,{"id": "johnh9", "team": "t25", "name": "Tox Brewing Company", "municipality": "New London", "region": "Connecticut", "latitude": "41.367298", "longitude": "-72.124008", "altitude": "169"}
        ,{"id": "rpcme", "team": "t28", "name": "Housatonic River Brewing", "municipality": "New Milford", "region": "Connecticut", "latitude": "41.577769", "longitude": "-73.420525", "altitude": "207"}
	,{"id": "royaliz", "team": "t14", "name": "Spacecat Brewing Company", "municipality": "Norwalk", "reigon": "Connecticut", "latitude": "41.091069", "longitude": "-73.420904", "altitude": "15"}
        ,{"id": "adavachi", "team": "t32", "name": "First State Brewing Company", "municipality": "Middletown", "region": "Delaware", "latitude": "39.438060", "longitude": "-75.748670", "altitude": "72"}
        ,{"id": "minibray", "team": "t24", "name": "Dogfish Head Craft Brewery", "municipality": "Milton", "region": "Delaware", "latitude": "38.772850", "longitude": "-75.312000", "altitude": "1"}
        ,{"id": "ahuss12", "team": "t13", "name": "Wilmington Brew Works", "municipality": "New Castle", "region": "Delaware", "latitude": "39.766336", "longitude": "-75.537175", "altitude": "143"}
        ,{"id": "truongak", "team": "t28", "name": "Dogfish Head Brewings & Eats", "municipality": "Rehoboth Beach", "region": "Delaware", "latitude": "38.715271", "longitude": "-75.087082", "altitude": "19"}
        ,{"id": "ver", "team": "t24", "name": "Strange Colt Brewery", "municipality": "Niceville", "region": "Florida", "latitude": "30.5150394", "longitude": "-86.4650573", "altitude": "51"}
        ,{"id": "filip", "team": "t23", "name": "Funky Buddha Brewery", "municipality": "Oakland Park", "region": "Florida", "latitude": "26.17431", "longitude": "-80.13125", "altitude": "3"}
	,{"id": "cjsahlen", "team": "t13", "name": "Ivanhoe Park Brewing Company", "municipality": "Orlando", "region": "Florida", "latitude": "28.563130", "longitude": "-81.372336", "altitude": "97"}
        ,{"id": "colekump", "team": "t32", "name": "Bog Brewing Company", "municipality": "Saint Augustine", "region": "Florida", "latitude": "29.891000270478", "longitude": "-81.32708148650", "altitude": "0"}
        ,{"id": "rossp", "team": "t30", "name": "Palm City Brewing Company", "municipality": "San Carlos Park", "region": "Florida", "latitude": "26.477904", "longitude": "-81.826947", "altitude": "6"}
        ,{"id": "Tsyber", "team": "t31", "name": "Playalinda Brewing Company", "municipality": "Titusville", "region": "Florida", "latitude": "28.54678", "longitude": "-80.79611", "altitude": "33"}
	,{"id": "delta27", "team": "t21", "name": "Akademia Brewing Company", "municipality": "Athens", "region": "Georgia", "latitude": "33.942256", "longitude": "-83.470407", "altitude": "777"}
        ,{"id": "timand", "team": "t30", "name": "Grumpy Old Men Brewing", "municipality": "Blue Ridge", "region": "Georgia", "latitude": "34.85828", "longitude": "-84.32983", "altitude": "1719"}
        ,{"id": "eldridg", "team": "t20", "name": "Gate City Brewing Company", "municipality": "Roswell", "region": "Georgia", "latitude": "34.02381", "longitude": "-84.36211", "altitude": "1062"}
        ,{"id": "qmeisman", "team": "t33", "name": "Bent Tree Brewing", "municipality": "Athol", "region": "Idaho", "latitude": "47.95255", "longitude": "-116.75598", "altitude": "2392"}
	,{"id": "jmr0424", "team": "t12", "name": "Highlands Hollow Brewhouse", "municipality": "Boise", "region": "Idaho", "latitude": "43.642222", "longitude": "-116.208611", "altitude": "2730"}
	,{"id": "krisbarn", "team": "t14", "name": "Laughing Dog Brewery", "municipality": "Ponderay", "region": "Idaho", "latitude": "48.3045912", "longitude": "-116.5417106", "altitude": "2131"}
        ,{"id": "hridayab", "team": "t28", "name": "Revolution Brewing", "municipality": "Chicago", "region": "Illinois", "latitude": "41.942151", "longitude": "-87.708530", "altitude": "613"}
        ,{"id": "scott20", "team": "t33", "name": "Mickey Finn's Brewery", "municipality": "Libertyville", "region": "Illinois", "latitude": "42.28614", "longitude": "-87.95428", "altitude": "699"}
        ,{"id": "mikemc24", "team": "t16", "name": "Tighthead Brewing Company", "municipality": "Mundelein", "region": "Illinois", "latitude": "42.268135", "longitude": "-87.999132", "altitude": "755"}
        ,{"id": "dschmuck", "team": "t29", "name": "Chilly Water Brewing Company", "municipality": "Indiana", "region": "Indianapolis", "latitude": "39.757190", "longitude": "-86.145720", "altitude": "223"}
        ,{"id": "toreskey", "team": "t37", "name": "Five Cities Brewing - Taproom", "municipality": "Bettendorf", "region": "Iowa", "latitude": "41.573856", "longitude": "-90.500802", "altitude": "713"}
        ,{"id": "martel", "team": "t25", "name": "Third Base Brewery", "municipality": "Cedar Rapids", "region": "Iowa", "latitude": "42.035064", "longitude": "-91.639801", "altitude": "832"}
        ,{"id": "tyseef", "team": "t37", "name": "Toppling Goliath Brewing Co", "municipality": "Decorah", "region": "Iowa", "latitude": "43.274154", "longitude": "-91.726068", "altitude": "1185"}
        ,{"id": "goron117", "team": "t25", "name": "Not Lost Brewing", "municipality": "Ottawa", "region": "Kansas", "latitude": "38.61484", "longitude": "-95.26843", "altitude": "925"}
        ,{"id": "dpoppa4", "team": "t38", "name": "Rock House Brewing", "municipality": "Lexington", "region": "Kentucky", "latitude": "38.054795", "longitude": "-84.480299", "altitude": "988"}
	,{"id": "cjbeall", "team": "t26", "name": "Crescent City Brewhouse", "municipality": "New Orleans", "region": "Louisiana", "latitude": "29.95616", "longitude": "-90.06422", "altitude": "0"}
	,{"id": "natebenn", "team": "t36", "name": "Blaze Brewing Company", "municipality": "Biddeford", "region": "Maine", "latitude": "43.495761", "longitude": "-70.453219", "altitude": "55"}
	,{"id": "omarwrs", "team": "t36", "name": "Bateau Brewing", "municipality": "Gardiner", "region": "Maine", "latitude": "44.22903", "longitude": "-69.77050", "altitude": "23"}
        ,{"id": "ingjacob", "team": "t28", "name": "Grateful Grain Brewing Co.", "municipality": "Monmouth", "region": "Maine", "latitude": "44.1817", "longitude": "-69.9917", "altitude": "67"}
	,{"id": "mpoppa1", "team": "t12", "name": "Attaboy Beer", "municipality": "Frederick", "region": "Maryland", "latitude": "39.412206", "longitude": "-77.403375", "altitude": "286"}
        ,{"id": "boolinn", "team": "t15", "name": "Falling Branch Brewery", "municipality": "Harford", "region": "Maryland", "latitude": "39.65223592", "longitude": "-76.35622652", "altitude": "803"}
	,{"id": "nfotis", "team": "t36", "name": "Navigation Brewing Co.", "municipality": "Lowell", "region": "Massachusetts", "latitude": "42.639961", "longitude": "-71.319359", "altitude": "89"}
	,{"id": "jthiggin", "team": "t29", "name": "Lord Hobo Brewing Company", "municipality": "Woburn", "region": "Massachusetts", "latitude": "42.476025", "longitude": "-71.128931", "altitude": "100"}
	,{"id": "drakeem", "team": "t14", "name": "Greater Good Imperial Brewing Company", "municipality": "Worcester", "region": "Massachusetts", "latitude": "42.287523", "longitude": "-71.8011856", "altitude": "528"}
	,{"id": "alifayed", "team": "t30", "name": "Eastern Market Brewing Co", "municipality": "Detroit", "region": "Michigan", "latitude": "42.3475859", "longitude": "-83.0387648", "altitude": "1.19"}
        ,{"id": "peasleed", "team": "t24", "name": "New Holland Brewing", "municipality": "Holland", "region": "Michigan", "latitude": "42.79011513601594", "longitude": "-86.10421522854294", "altitude": "622"}
        ,{"id": "frogman3", "team": "t34", "name": "Hoops Brewing Company", "municipality": "Duluth", "region": "Minnesota", "latitude": "46.7835384", "longitude": "-92.0963248", "altitude": "627"}
        ,{"id": "mattm936", "team": "t39", "name": "Boathouse Brewpub", "municipality": "Ely", "region": "Minnesota", "latitude": "45.9032", "longitude": "-91.8671", "altitude": "1434"}
        ,{"id": "spencebl", "team": "t00", "name": "Bauhaus Brewery", "municipality": "Minneapolis", "region": "Minnesota", "latitude": "45.0009", "longitude": "-93.2465", "altitude": "849"}
        ,{"id": "pie2003", "team": "t12", "name": "Wicked Wort Brewing Company", "municipality": "Robbinsdale", "region": "Minnesota", "latitude": "45.03113", "longitude": "-93.33923", "altitude": "879"}
        ,{"id": "pbmcg", "team": "t38", "name": "Public House Brewing Company", "municipality": "St. James", "region": "Missouri", "latitude": "38.00981565", "longitude": "-91.60853213", "altitude": "1078"}
        ,{"id": "ivans", "team": "t20", "name": "Bozeman Brewing Company", "municipality": "Bozeman", "region": "Montana", "latitude": "45.684560", "longitude": "-111.023844", "altitude": "4807"}
        ,{"id": "kedrick", "team": "t13", "name": "Blackfoot River Brewing Co", "municipality": "Helena", "region": "Montana", "latitude": "46.586254", "longitude": "-112.041829", "altitude": "4101"}
        ,{"id": "harvin", "team": "t13", "name": "Philipsburg Brewing Company", "municipality": "Philipsburg", "region": "Montana", "latitude": "46.332452", "longitude": "-113.294433", "altitude": "5241"}
	,{"id": "dbh2001", "team": "t15", "name": "Steeple Brewing Company", "municipality": "Hastings", "region": "Nebraska", "latitude": "40.3503", "longitude": "-98.2324", "altitude": "1764"}
        ,{"id": "jacopo", "team": "t19", "name": "Pint Nine Brewing Company", "municipality": "La Vista", "region": "Nebraska", "latitude": "41.1718584", "longitude": "-96.0759148", "altitude": "1096"}
        ,{"id": "dmcyde", "team": "t16", "name": "Boiler Brewing Company", "municipality": "Lincoln", "region": "Nebraska", "latitude": "40.814185", "longitude": "-96.707404", "altitude": "1201"}
        ,{"id": "emsims", "team": "t31", "name": "Tenaya Creek Brewery", "municipality": "Las Vegas", "region": "Nevada", "latitude": "36.176885086283605", "longitude": "-115.15354010598669", "altitude": "2001"}
        ,{"id": "bmattes", "team": "t39", "name": "Great Basin Brewing Company", "municipality": "Sparks", "region": "Nevada", "latitude": "39.535102", "longitude": "-119.754130", "altitude": "4438"}
	,{"id": "malinj", "team": "t18", "name": "603 Brewery and Beer Hall", "municipality": "Londonderry", "region": "New Hampshire", "latitude": "42.8725", "longitude": "-71.346944", "altitude": "420"}
	,{"id": "gabimcd", "team": "t33", "name": "Throwback Brewery", "municipality": "North Hampton", "region": "New Hampshire", "latitude": "42.98105991", "longitude": "-70.83453345", "altitude": "82"}	    
        ,{"id": "ahanna1", "team": "t29", "name": "Santa Fe Brewing Company Albuquerque Taproom", "municipality": "Albuquerque", "region": "New Mexico", "latitude": "35.106116", "longitude": "-106.603500", "altitude": "4967"}
        ,{"id": "glemicnt", "team": "t39", "name": "Lauter Haus Brewing Company", "municipality": "Farmington", "region": "New Mexico", "latitude": "36.749712", "longitude": "-108.181799", "altitude": "5306"}
        ,{"id": "jaispuro", "team": "t23", "name": "Hidden Mountain Brewing Company", "municipality": "Santa Fe", "region": "New Mexico", "latitude": "35.64139381165665", "longitude": "-106.01550313953051", "altitude": "6578"}
	,{"id": "ejpitera", "team": "t26", "name": "Fort Orange Brewing", "municipality": "Albany", "region": "New York", "latitude": "42.6669444444", "longitude": "-73.7430555556", "altitude": "148"}
        ,{"id": "jacob3", "team": "t16", "name": "Next Chapter Brewpub", "municipality": "Auburn", "region": "New York", "latitude": "42.931242", "longitude": "-76.566551", "altitude": "715"}
        ,{"id": "nael", "team": "t15", "name": "Upstate Brewing Company", "municipality": "Big Flats", "region": "New York", "latitude": "42.12526635", "longitude": "-76.87558073", "altitude": "871"}
        ,{"id": "jasoncur", "team": "t16", "name": "Montauk Brewing Company", "municipality": "Montauk", "region": "New York", "latitude": "41.03669", "longitude": "-71.94404", "altitude": "43"}
        ,{"id": "mdeblois", "team": "t29", "name": "Marble Hill Inn", "municipality": "Onieda", "region": "New York", "latitude": "43.060014", "longitude": "-75.591062", "altitude": "630"}
        ,{"id": "chris310", "team": "t35", "name": "Matt Brewing Company", "municipality": "Utica", "region": "New York", "latitude": "43.10453203652292", "longitude": "-75.24554683167086", "altitude": "436"}
	,{"id": "cross35", "team": "t34", "name": "Lost Province Brewing Co", "municipality": "Boone", "region": "North Carolina", "latitude": "36.21942", "longitude": "-81.68354", "altitude": "3248"}
        ,{"id": "ian1363", "team": "t15", "name": "Fullsteam Brewery", "municipality": "Durham", "region": "North Carolina", "latitude": "36.0030608", "longitude": "-78.899390", "altitude": "404"}
        ,{"id": "blakebri", "team": "t19", "name": "Drekker Brewing Company", "municipality": "Fargo", "region": "North Dakota", "latitude": "46.8761931", "longitude": "-96.8079431", "altitude": "917"}
        ,{"id": "tauren", "team": "t39", "name": "Brockopp Brewing", "municipality": "Valley City", "region": "North Dakota", "latitude": "46.923086", "longitude": "-98.002718", "altitude": "1222"}
        ,{"id": "olivern", "team": "t22", "name": "Southern Ohio Brewing", "municipality": "Dayton", "region": "Ohio", "latitude": "39.71244", "longitude": "-82.02794", "altitude": "843"}
	,{"id": "jpoppa", "team": "t36", "name": "Jilbert Winery & Brewery", "municipality": "Valley City", "region": "Ohio", "latitude": "41.233977", "longitude": "-81.922900", "altitude": "852"}
        ,{"id": "ballard2", "team": "t24", "name": "Canadian River Brewing Company", "municipality": "Chickasha", "region": "Oklahoma", "latitude": "35.0509725", "longitude": "-97.9361762", "altitude": "1093"}
        ,{"id": "maxinego", "team": "t14", "name": "Stonecloud Brewing Company", "municipality": "Oklahoma City", "region": "Oklahoma", "latitude": "35.468613", "longitude": "-97.529142", "altitude": "1198"}
        ,{"id": "kade5", "team": "t31", "name": "North Seven Brewing Co", "municipality": "Baker City", "region": "Oregon", "latitude": "44.7769595", "longitude": "-117.8313185", "altitude": "3442"}
        ,{"id": "bdunahu", "team": "t27", "name": "Crux Fermentation Project", "municipality": "Bend", "region": "Oregon", "latitude": "44.046726", "longitude": "-121.322088", "altitude": "3625"}
	,{"id": "awbrown0", "team": "t38", "name": "Newport Brewing Company", "municipality": "Newport", "region": "Oregon", "latitude": "44.63226", "longitude": "-124.05971", "altitude": "83"}   
        ,{"id": "ewc97712", "team": "t16", "name": "Great Notion Brewing - NW28th", "municipality": "Portland", "region": "Oregon", "latitude": "45.539692", "longitude": "-122.708942", "altitude": "39"}
	,{"id": "elisong", "team": "t36", "name": "Brewerie at Union Station, The", "municipality": "Erie", "region": "Pennsylvania", "latitude": "42.0718", "longitude": "-80.0449", "altitude": "683"}
        ,{"id": "pavanomp", "team": "t38", "name": "Juniata Brewing Company", "municipality": "Huntingdon", "region": "Pennsylvania", "latitude": "40.48467", "longitude": "-78.01139", "altitude": "643"}  
	,{"id": "sofia02c", "team": "t20", "name": "Sworn Brewing Company", "municipality": "Mechanicsburg", "region": "Pennsylvania", "latitude": "40.21984", "longitude": "-76.98335", "altitude": "446"}
        ,{"id": "zakider", "team": "t39", "name": "Buttonwoods Brewery", "municipality": "Cranston", "region": "Rhode Island", "latitude": "41.773183", "longitude": "-71.426517", "altitude": "45.3"} 
        ,{"id": "sharling", "team": "t37", "name": "Side Hustle Brewing Company", "municipality": "Hilton Head", "region": "South Carolina", "latitude": "32.14951133390316", "longitude": "-80.75525161535226", "altitude": "10"}
	,{"id": "cookls", "team": "t35", "name": "Angry Fish Brewing Co.", "municipality": "Lexington", "region": "South Carolina", "latitude": "33.980808", "longitude": "-81.276054", "altitude": "397"}    
	,{"id": "kmjager", "team": "t35", "name": "Sick-N-Twisted Brewery", "municipality": "Hill City", "region": "South Dakota", "latitude": "43.947233", "longitude": "-103.528625", "altitude": "5013"}
	,{"id": "clayroby", "team": "t26", "name": "Firehouse Brewing Company", "municipality": "Rapid City", "region": "South Dakota", "latitude": "44.085690", "longitude": "-103.226891", "altitude": "7242"}
	,{"id": "jecircen", "team": "t15", "name": "Yazoo Brewing Company", "municipality": "Madison", "region": "Tennessee", "latitude": "36.27580", "longitude": "-86.68655", "altitude": "505"}
	,{"id": "jacobrp", "team": "t24", "name": "Tennessee Brew Works", "municipality": "Nashville", "region": "Tennessee", "latitude": "36.15037", "longitude": "-86.77629", "altitude": "558"}
        ,{"id": "emmars", "team": "t35", "name": "Zilker Brewing Company and Taproom", "municipality": "Austin", "region": "Texas", "latitude": "30.262172", "longitude": "-97.724596", "altitude": "489"}
        ,{"id": "anjoke", "team": "t11", "name": "Old Texas Brewing Co.", "municipality": "Burleson", "region": "Texas", "latitude": "32.61330260643355", "longitude": "-97.37754962170001", "altitude": "709"}
        ,{"id": "rocarrol", "team": "t38", "name": "DeadBeach Brewery", "municipality": "El Paso", "region": "Texas", "latitude": "31.755540", "longitude": "-106.492700", "altitude": "3711"}
	,{"id": "lnlarson", "team": "t20", "name": "Hop and Sting Brewing Company", "municipality": "Grapevine", "region": "Texas", "latitude": "32.938021", "longitude": "-97.076461", "altitude": "630"}
	,{"id": "shliu", "team": "t25", "name": "Laredo Brewing Company", "municipality": "Laredo", "region": "Texas", "latitude": "27.585147284583755", "longitude": "-99.44553753865029", "altitude": "450"}
        ,{"id": "riggsx2", "team": "t27", "name": "5x5 Brewing Company", "municipality": "Mission", "region": "Texas", "latitude": "26.210941", "longitude": "-98.310098", "altitude": "136"}
	,{"id": "tamo", "team": "t26", "name": "Ranger Creek Brewing & Distilling", "municipality": "San Antonio", "region": "Texas", "latitude": "29.5291666667", "longitude": "-98.3969444444", "altitude": "751"}
        ,{"id": "cgramey", "team": "t22", "name": "Cedar Creek Brewery", "municipality": "Seven Points", "region": "Texas", "latitude": "32.32445", "longitude": "-96.20741", "altitude": "384"}
	,{"id": "wadem", "team": "t18", "name": "Park City Brewing", "municipality": "Park City", "region": "Utah", "latitude": "40.723959", "longitude": "-111.540813", "altitude": "7000"}
	,{"id": "Janette", "team": "t18", "name": "Kiitos", "municipality": "Salt Lake City", "region": "Utah", "latitude": "40.7546025", "longitude": "-111.9085529", "altitude": "4265"}
    	,{"id": "elleryno", "team": "t18", "name": "Two Heroes Brewery", "municipality": "Grand Isle", "region": "Vermont", "latitude": "44.645855272726", "longitude": "-73.300912934519", "altitude": "95"}
        ,{"id": "coreydc", "team": "t37", "name": "Alchemist Cannery", "municipality": "Waterbury", "region": "Vermont", "latitude": "44.350492811555114", "longitude": "-72.7438521", "altitude": "427"}
        ,{"id": "ethanju", "team": "t32", "name": "The Farm Brewery at Broad Run", "municipality": "Broad Run", "region": "Virginia", "latitude": "38.81928", "longitude": "-77.66890", "altitude": "387"}
	,{"id": "sethhyde", "team": "t34", "name": "Colonial Beach Brewing", "municipality": "Colonial Beach", "region": "Virginia", "latitude": "38.2519", "longitude": "-76.9632", "altitude": "9.8"}
	,{"id": "dineshg", "team": "t33", "name": "The Virginia Beer Company", "municipality": "Williamsburg", "region": "Virginia", "latitude": "37.27199", "longitude": "-76.6898", "altitude": "82"}
	,{"id": "jennifar", "team": "t20", "name": "Iron Horse Brewery", "municipality": "Ellensburg", "region": "Washington", "latitude": "47.000695", "longitude": "-120.520180", "altitude": "1589"}
        ,{"id": "Absoz", "team": "t23", "name": "North Sound Brewing Co.", "municipality": "Mount Vernon", "region": "Washington", "latitude": "48.43175", "longitude": "-122.37015", "altitude": "48"}
        ,{"id": "norwick", "team": "t12", "name": "Headless Mumby Brewing", "municipality": "Olympia", "region": "Washington", "latitude": "47.04499", "longitude": "-122.90534", "altitude": "15"}
        ,{"id": "bachrock", "team": "t11", "name": "Port Townsend Brewing Company", "municipality": "Port Townsend", "region": "Washington", "latitude": "48.11", "longitude": "-122.78", "altitude": "10"}
        ,{"id": "abby5655", "team": "t14", "name": "The Pike Brewing Company", "municipality": "Seattle", "region": "Washington", "latitude": "47.60833", "longitude": "-122.33971", "altitude": "167"}
        ,{"id": "netsirt", "team": "t34", "name": "Sig Brewing Company", "municipality": "Tacoma", "region": "Washington", "latitude": "47.2372446", "longitude": "-122.4413657", "altitude": "65"}
        ,{"id": "Jstaut53", "team": "t30", "name": "Young Blood Beer Company", "municipality": "Madison", "region": "Wisconsin", "latitude": "43.075778", "longitude": "-89.381006", "altitude": "912"}
        ,{"id": "alexr11", "team": "t11", "name": "Minocqua Brewing Company", "municipality": "Minocqua", "region": "Wisconsin", "latitude": "45.87125", "longitude": "-89.71154", "altitude": "1607"}
        ,{"id": "evelynn", "team": "t35", "name": "Atypical Brewery & Barrelworks", "municipality": "Minot", "region": "Wisconsin", "latitude": "44.65944", "longitude": "-90.179167", "altitude": "1555"}
        ,{"id": "erikrc", "team": "t27", "name": "New Glarus Brewing Company", "municipality": "New Glarus", "region": "Wisconsin", "latitude": "42.79449", "longitude": "-89.63001", "altitude": "951"}
	,{"id": "oli", "team": "t35", "name": "Plymouth Brewing Company", "municipality": "Plymouth", "region": "Wisconsin", "latitude": "43.7477023", "longitude": "-87.9766677", "altitude": "835"}
        ,{"id": "ryanc70", "team": "t27", "name": "3 Sheeps Brewing Company", "municipality": "Sheboygan", "region": "Wisconsin", "latitude": "43.773276", "longitude": "-87.730484", "altitude": "669"}
	,{"id": "ally426", "team": "t18", "name": "Accomplice Beer Company", "municipality": "Cheyenne", "region": "Wyoming", "latitude": "41.0759", "longitude": "-104.4845", "altitude": "6056"}
        ,{"id": "birch1", "team": "t29", "name": "The Library Sports Grille & Brewery", "municipality": "Laramie", "region": "Wyoming", "latitude": "41.309250", "longitude": "-105.594990", "altitude": "7165"}
        ,{"id": "rpcme", "team": "t28", "name": "Housatonic River Brewing", "municipality": "New Milford", "region": "Connecticut", "latitude": "41.577769", "longitude": "-73.420525", "altitude": "207"}   
		,{"id": "jacopo", "team": "t19", "name": "Malto Brewery", "municipality": "Tirana", "country": "Albania", "latitude": "41.321429", "longitude": "19.794341", "altitude": "360"}
        ,{"id": "olivern", "team": "t22", "name": "Cervesa Boris Craft Beer ANDORRA", "municipality": "La Cortinada", "country": "Andorra", "latitude": "42.57691", "longitude": "1.52019", "altitude": "4379"}
        ,{"id": "maxinego", "team": "t14", "name": "Cerbab Cabinda", "municipality": "Cabinda", "country": "Angola", "latitude": "11.027", "longitude": "17.87", "altitude": "93"}
        ,{"id": "jennifar", "team": "t20", "name": "2SIX8 Craft Brewery", "municipality": "Falmouth", "country": "Antigua & Barbuda", "latitude": "17.023054", "longitude": "-61.768143", "altitude": "10" }
        ,{"id": "cribbs", "team": "t21", "name": "Strange Brewing", "municipality": "Buenos Aires", "country": "Argentina", "latitude": "-34.57944683625527", "longitude": "-58.45129420287384", "altitude": "78"}
        ,{"id": "ally426", "team": "t18", "name": "Gyumri Beer Brewery", "municipality": "Gyumri", "country": "Armenia", "latitude": "40.4524", "longitude": "43.5000", "altitude": "4990"}
        ,{"id": "glemicnt", "team": "t39", "name": "Balashi", "municipality": "Oranjestad", "country": "Aruba", "latitude": "12.481012", "longitude": "-69.981666", "altitude": "13"}
        ,{"id": "birch1", "team": "t29", "name": "Stone & Wood Brewery Byron Bay", "municipality": "Byron Bay", "country": "Australia", "latitude": "-28.637131", "longitude": "153.580780", "altitude": "10"}
        ,{"id": "cgramey", "team": "t22", "name": "Stiegl Brewery", "municipality": "Salzburg", "country": "Austria", "latitude": "47.83505", "longitude": "12.99378", "altitude": "1391"}
        ,{"id": "dbh2001", "team": "t15", "name": "Carlsberg Azerbijan", "municipality": "Xirdalan", "country": "Azerbijan", "latitude": "40.22844", "longitude": "49.4511", "altitude": "23"}
        ,{"id": "ballard2", "team": "t24", "name": "Bracongo", "municipality": "Kingabwa", "country": "Democratic Republic of the Congo", "latitude": "-4.33223", "longitude": "15.34188", "altitude": "918"}
        ,{"id": "krisbarn", "team": "t14", "name": "Andes Brewing Co.", "municipality": "Quito", "country": "Ecuador", "latitude": "-0.201779", "longitude": "-78.427007", "altitude": "7707"}
        ,{"id": "royaliz", "team": "t14", "name": "Efes Kazakhstan Careers", "municipality": "Almaty", "country": "Kazakhstan", "latitude": "43.260380", "longitude": "76.9488675", "altitude": "2609"}
        ,{"id": "drakeem", "team": "t14", "name": "Genys Brewing Company", "municipality": "Kaunas", "country": "Lithuania", "latitude": "54.864519", "longitude": "23.948370", "altitude": "187"}
        ,{"id": "abby5655", "team": "t14", "name": "Nipa Brew Taproom and Brewhouse", "municipality": "Manila", "country": "Philippines", "latitude": "14.56585", "longitude": "121.01312", "altitude": "16"}
        ,{"id": "bachrock", "team": "t11", "name": "The Bahamian Brewery", "municipality": "Freeport", "country": "Bahamas", "latitude": "26.523889", "longitude": "-78.738611", "altitude": "13"}
        ,{"id": "zakider", "team": "t39", "name": "C45 Artisan Brewery", "municipality": "Seef", "country": "Bahrain", "latitude": "26.233144", "longitude": "50.540373", "altitude": "213"}
        ,{"id": "arapport", "team": "t22", "name": "The Beer Of Barbados", "municipality": "Bridgetown", "country": "Barbados", "latitude": "13.10755135980022", "longitude": "-59.60579251557373", "altitude": "49"}
        ,{"id": "qmeisman", "team": "t33", "name": "Mad Frog Brewery", "municipality": "Minsk", "country": "Belarus", "latitude": "53.86019", "longitude": "27.68603", "altitude": "920"}
        ,{"id": "davematt", "team": "t00", "name": "Delirium Cafe", "municipality": "Bruxelles", "country": "Belgium", "latitude": "50.848462", "longitude": "4.353891", "altitude": "277"}
        ,{"id": "dmorigea", "team": "t28", "name": "Belize Brewing Company", "municipality": "Ladyville", "country": "Belize", "latitude": "17.5435062", "longitude": "-88.3006211", "altitude": "29"}
        ,{"id": "tamo", "team": "t26", "name": "Sabores Bolivianos Alemanes S.R.L.", "municipality": "Santa Cruz de la Ciera", "country": "Bolivia", "latitude": "17.54", "longitude": "-63.131", "altitude": "1132"}
        ,{"id": "rossp", "team": "t30", "name": "Sarajevo Brewery", "municipality": "Sarajevo", "country": "Bosnia and Herzegovina", "latitude": "43.855873", "longitude": "18.433368", "altitude": "1833"}
        ,{"id": "evanloy", "team": "t26", "name": "Big Sip Co", "municipality": "Gaborone", "country": "Botswana", "latitude": "-24.62196", "longitude": "25.91674", "altitude": "3291"}
        ,{"id": "ejpitera", "team": "t26", "name": "Dama Bier Brewery", "municipality": "Piracicaba", "country": "Brazil", "latitude": "-22.7388888889", "longitude": "-47.63", "altitude": "1772"}
        ,{"id": "peasleed", "team": "t24", "name": "Rhombus Brewery & Restaurant", "municipality": "Pazardzhik", "country": "Bulgaria", "latitude": "42.2141949", "longitude": "24.3297009", "altitude": "697"}
        ,{"id": "oli", "team": "t35", "name": "Braruda SA", "municipality": "Bujumbura", "country": "Burundi", "latitude": "-3.3711365", "longitude": "29.3496553", "altitude": "2564"}
        ,{"id": "truongak", "team": "t28", "name": "The HEINEKEN Company, Cambodia Brewery Limited", "municipality": "Phnom Penh", "country": "Cambodia", "latitude": "11.51942", "longitude": "104.99405", "altitude": "43"}
        ,{"id": "rpcme", "team": "t28", "name": "Left Field Brewery", "municipality": "Toronto", "country": "Canada", "latitude": "43.674241", "longitude": "-79.330451", "altitude": "310"}
        ,{"id": "scott20", "team": "t33", "name": "Cayman Islands Brewery Ltd", "region": "Patricks Island", "country": "Cayman Islands", "latitude": "19.27758", "longitude": "-81.33538", "altitude": "13"}
        ,{"id": "ahanna1", "team": "t29", "name": "La Brasserie", "municipality": "Bangui", "country": "Central African Republic", "latitude": "4.360523", "longitude": "18.582144", "altitude": "1211"}
        ,{"id": "kypes", "team": "t27", "name": "Brasseries du Tchad", "municipality": "N'Djamena", "country": "Chad", "latitude": "13.36483", "longitude": "14.07662", "altitude": "978"}
        ,{"id": "Tsyber", "team": "t31", "name": "Cerveceria SpoH", "municipality": "Santiago", "country": "Chile", "latitude": "-33.46558", "longitude": "-70.65151", "altitude": "1765"}
        ,{"id": "anjoke", "team": "t11", "name": "Peko Brewing Co.", "municipality": "Shenzhen", "country": "China", "latitude": "22.54780809471316", "longitude": "113.96863025101068", "altitude": "45"}
        ,{"id": "jmr0424", "team": "t12", "name": "Kingway Brewery", "municipality": "XiAn", "country": "China", "latitude": "34.3583333", "longitude": "108.935278", "altitude": "1329"}
        ,{"id": "jaispuro", "team": "t23", "name": "Colombia Craft Brewing Company", "municipality": "Medellín", "country": "Colombia", "latitude": "6.222659221918763", "longitude": "-75.56848888208476", "altitude": "5138"}
        ,{"id": "emmars", "team": "t35", "name": "Monteverde Brewing Company", "municipality": "Monteverde", "country": "Costa Rica", "latitude": "10.325033", "longitude": "-84.830204", "altitude": "4600"}
        ,{"id": "timand", "team": "t30", "name": "Nova Runda Brewery", "municipality": "Zabok", "country": "Croatia", "latitude": "46.01701", "longitude": "15.89113", "altitude": "466"}
        ,{"id": "pavanomp", "team": "t38", "name": "Buccaneer Brewery", "municipality": "Holguín", "country": "Cuba", "latitude": "20.8425", "longitude": "-75.7515", "altitude": "16"}
        ,{"id": "cjsahlen", "team": "t13", "name": "Pilsner Urquell Brewery", "municipality": "Pilsen", "country": "Czech Republic", "latitude": "49.743941", "longitude": "13.386243", "altitude": "1010"}
        ,{"id": "blakebri", "team": "t19", "name": "Flying Couch Brewery", "municipality": "Copenhagen", "country": "Denmark", "latitude": "55.7054702", "longitude": "12.5342572", "altitude": "44"}
        ,{"id": "mdeblois", "team": "t29", "name": "Walden Homebrew", "municipality": "Punta Cana", "country": "Dominican Republic", "latitude": "18.616800", "longitude": "-68.398602", "altitude": "63"}
        ,{"id": "nfotis", "team": "t36", "name": "Al Ahram Beverages Company", "municipality": "Ezbet Hasanen", "country": "Egypt", "latitude": "30.567920", "longitude": "31.684830", "altitude": "29"}
        ,{"id": "dschmuck", "team": "t29", "name": "Cadejo Brewing Company", "municipality": "San Salvador", "country": "El Salvador", "latitude": "13.693450", "longitude": "-89.235290", "altitude": "2372"}
        ,{"id": "wany0924", "team": "t19", "name": "Richmond Brewing Company", "municipality": "Richmond", "country": "England", "latitude": "54.402890", "longitude": "1.729251", "altitude": "332"}
        ,{"id": "Absoz", "team": "t23", "name": "Beer House", "municipality": "Tallinn", "country": "Estonia", "latitude": "59.44038", "longitude": "24.74299", "altitude": "9"}
        ,{"id": "nael", "team": "t15", "name": "St George Brewery", "municipality": "Addis Ababa", "country": "Ethiopia", "latitude": "9.017711614697948", "longitude": "38.74496605562622", "altitude": "7726"}
        ,{"id": "ver", "team": "t24", "name": "Ginger-Lei Fiji", "municipality": "Nadi", "country": "Fiji", "latitude": "-17.77652812", "longitude": "177.43563758", "altitude": "42"}
        ,{"id": "jasoncur", "team": "t16", "name": "Fat Lizard Brewing Company", "municipality": "Espoo", "country": "Finland", "latitude": "60.18142", "longitude": "24.82942", "altitude": "72"}
        ,{"id": "kedrick", "team": "t13", "name": "The Brewers of Lorraine", "municipality": "Lorraine", "country": "France", "latitude": "48.906588", "longitude": "6.050400", "altitude": "595"}
        ,{"id": "awbrown0", "team": "t38", "name": "Brasserie Guyanaise", "municipality": "Matoury", "country": "French Guiana", "latitude": "4.79875", "longitude": "-52.33898", "altitude": "36"}
        ,{"id": "toreskey", "team": "t37", "name": "Schiffwirtschaft - Brauerei", "municipality": "Füssen", "country": "Germany", "latitude": "47.565403", "longitude": "10.700714", "altitude": "2661"}
        ,{"id": "rnuguru", "team": "t22", "name": "Accra Brewery Limited", "municipality": "Accra", "country": "Ghana", "latitude": "5.556490", "longitude": "-0.221140", "altitude": "43"}
        ,{"id": "cruzfm", "team": "t33", "name": "Noctua Brewery Athens", "municipality": "Athens", "country": "Greece", "latitude": "37.975950", "longitude": "23.710170", "altitude": "66"}
        ,{"id": "atlat", "team": "t17", "name": "Qajaq Brewery", "municipality": "Narsaq", "country": "Greenland", "latitude": "60.90787", "longitude": "-46.04951", "altitude": "3"}
        ,{"id": "evelynn", "team": "t35", "name": "The Guan Brewery Taphouse", "municipality": "Tamuning", "country": "Guam", "latitude": "3.5075", "longitude": "144.80028", "altitude": "10"}
        ,{"id": "ian1363", "team": "t15", "name": "Antigua Brewing Company", "municipality": "Antigua Guatemala", "country": "Guatemala", "latitude": "14.5584960", "longitude": "-90.734672", "altitude": "5029"}
        ,{"id": "alexr11", "team": "t11", "name": "Guerrilla Nanobrewery", "municipality": "Georgetown", "country": "Guyana", "latitude": "6.808780", "longitude": "-58.158630", "altitude": "15"}
        ,{"id": "mpoppa1", "team": "t12", "name": "Portau Brewery", "municipality": "Port-au-Prince", "country": "Haiti", "latitude": "18.595634", "longitude": "-72.281785", "altitude": "92"}
        ,{"id": "sofia02c", "team": "t20", "name": "Roatan Island Brewing Co.", "municipality": "Coxen Hole", "country": "Honduras", "latitude": "16.35975", "longitude": "-86.48468", "altitude": "220"}
        ,{"id": "motley3", "team": "t17", "name": "KEG Sörművház", "municipality": "Budapest", "country": "Hungary", "latitude": "47.4820845", "longitude": "19.052192", "altitude": "1729"}
        ,{"id": "emsims", "team": "t31", "name": "Lady Brewery", "municipality": "Reykjavík", "country": "Iceland", "latitude": "64.15785372550422", "longitude": "-21.941010332757088", "altitude": "128"}
        ,{"id": "dineshg", "team": "t33", "name": "Goa Brewing Company", "municipality": "Goa", "country": "India", "latitude": "15.54928", "longitude": "73.80713", "altitude": "3350"}
        ,{"id": "TristanT", "team": "t17", "name": "The Temple Bar", "municipality": "Dublin", "country": "Ireland", "latitude": "6.2675", "longitude": "53.3449", "altitude": "16"}
         ,{"id": "rollo", "team": "t32", "name": "Beer Stop", "municipality": "Tel Aviv", "country": "Israel", "latitude": "32.10438883307685", "longitude": "34.77329492803939", "altitude": "18"}
        ,{"id": "cdegen", "team": "t34", "name": "Brasseria della Fonte", "municipality": "Province of Siena", "country": "Italy", "latitude": "43.0939775", "longitude": "11.6510673", "altitude": "1056"}
        ,{"id": "aryanadv", "team": "t25", "name": "Clubhouse Brewery", "municipality": "Kingston", "country": "Jamaica", "latitude": "18.0451178", "longitude": "-76.7928299", "altitude": "489"}
        ,{"id": "ewc97712", "team": "t16", "name": "Riot Beer and Taproom", "municipality": "Tokyo", "country": "Japan", "latitude": "35.639612", "longitude": "139.610897", "altitude": "150"}
        ,{"id": "riggsx2", "team": "t27", "name": "Biera Amman", "municipality": "Amman", "country": "Jordan", "latitude": "31.957989", "longitude": "35.863624", "altitude": "3105"}
        ,{"id": "eldridg", "team": "t20", "name": "Baza Brewery", "municipality": "Almaty", "country": "Kazakhstan", "latitude": "43.36605", "longitude": "76.91002", "altitude": "2244"}
        ,{"id": "delta27", "team": "t21", "name": "Save The Ales", "municipality": "Bishkek", "country": "Kyrgyzstan", "latitude": "42.870490", "longitude": "74.609606", "altitude": "2513"}
        ,{"id": "cookls", "team": "t35", "name": "Chokdee Cafe & Belgian Beer Bar", "municipality": "Vientiane", "country": "Laos", "latitude": "17.963095", "longitude": "102.605835", "altitude": "570"}
        ,{"id": "ingjacob", "team": "t28", "name": "Labietis", "municipality": "Riga", "country": "Latvia", "latitude": "56.9655", "longitude": "24.13038", "altitude": "9"}
        ,{"id": "boolinn", "team": "t15", "name": "Colonel Brewery and Distillery", "municipality": "Batroun", "country": "Lebanon", "latitude": "34.250228", "longitude": "35.658186", "altitude": "112"}
        ,{"id": "ahuss12", "team": "t13", "name": "The Liechtensteiner Brauhaus", "municipality": "Schaan", "country": "Liechtenstein", "latitude": "47.177342", "longitude": "9.516368", "altitude": "1469"}
        ,{"id": "hsteve", "team": "t12", "name": "Grand Brewing Luxembourg", "municipality": "Kirchberg", "country": "Luxembourg", "latitude": "49.6311338", "longitude": "6.1654383", "altitude": "1113"}
        ,{"id": "pbmcg", "team": "t38", "name": "Star Brewing", "municipality": "Antsirabe", "country": "Madagascar", "latitude": "19.86", "longitude": "47.02", "altitude": "4900"}
        ,{"id": "bli45", "team": "t21", "name": "Chibuku Lilongwe Brewery", "municipality": "Lilongwe", "country": "Malawi", "latitude": "-13.913578", "longitude": "33.788193", "altitude": "3654"}
        ,{"id": "Janette", "team": "t18", "name": "Carlsberg Brewery Malaysia Berhad", "municipality": "Selangor", "country": "Malaysia", "latitude": "3.0718238", "longitude": "101.5483689", "altitude": "315"}
        ,{"id": "minibray", "team": "t24", "name": "Lord Chambray Brewery", "region": "Xewkija", "country": "Malta", "latitude": "36.030733", "longitude": "14.254671", "altitude": "312"}
        ,{"id": "elisong", "team": "t36", "name": "Brasserie Lorraine", "municipality": "Le Lamentin", "country": "Martinique", "latitude": "14.3740", "longitude": "-61.0130", "altitude": "210"}
        ,{"id": "norwick", "team": "t12", "name": "Flying Dodo Brewing Company", "region": "Moka", "country": "Mauritius", "latitude": "-20.22386", "longitude": "57.49529", "altitude": "1056"}
        ,{"id": "gerardov", "team": "t19", "name": "NSR Brewery", "municipality": "Culiacan", "country": "Mexico", "latitude": "24.825919", "longitude": "-107.400671", "altitude": "233"}
        ,{"id": "alifayed", "team": "t30", "name": "LaBREWtory Brewing Company", "municipality": "Chişinău", "country": "Moldova", "latitude": "47.1455376", "longitude": "27.4312678", "altitude": "3424"}
        ,{"id": "humaid99", "team": "t17", "name": "Brasserie de Monaco Brewery", "municipality": "Monte Carlo", "country": "Monaco", "latitude": "43.7384", "longitude": "7.4246", "altitude": "539"}
        ,{"id": "kmjager", "team": "t35", "name": "Salm Brewery", "municipality": "Ulaanbaatar", "country": "Mongolia", "latitude": "47.925667", "longitude": "106.916195", "altitude": "4429"}
        ,{"id": "ryanc70", "team": "t27", "name": "Trebjesa Brewery", "municipality": "Niksic", "country": "Montenegro", "latitude": "42.780924", "longitude": "18.952709", "altitude": "2086"}
        ,{"id": "aaouaj", "team": "t11", "name": "Amazigh Brewing Company", "municipality": "Tétouan", "country": "Morocco", "latitude": "35.564487", "longitude": "-5.369752", "altitude": "95"}
        ,{"id": "driva", "team": "t11", "name": "2M factory", "municipality": "Maputo", "country": "Mozambique", "latitude": "-25.91936", "longitude": "32.54302", "altitude": "32"}
        ,{"id": "sereno", "team": "t32", "name": "Heineken Myanmar Brewery", "municipality": "Yangon", "country": "Myanmar", "latitude": "16.96871", "longitude": "96.15272", "altitude": "30"}
        ,{"id": "rocarroll84", "team": "t38", "name": "Gorkha Brewery", "municipality": "Kathmandu", "country": "Nepal", "latitude": "27.711948", "longitude": "85.322167", "altitude": "5645"}
        ,{"id": "omarwrs", "team": "t36", "name": "White Dog Brewery", "municipality": "Dordretch", "country": "Netherlands", "latitude": "51.78381", "longitude": "4.64010", "altitude": "12"}
        ,{"id": "coreydc", "team": "t37", "name": "Altitude Brewing", "municipality": "Queenstown", "country": "New Zealand", "latitude": "-45.01780903469083", "longitude": "168.71593577883854", "altitude": "1017"}
        ,{"id": "gabimcd", "team": "t33", "name": "Braniger", "municipality": "Niamey", "country": "Niger", "latitude": "13.4630639", "longitude": "2.1275108", "altitude": "630"}
        ,{"id": "jthiggin", "team": "t29", "name": "Nigerian Breweries", "municipality": "Ota", "country": "Nigeria", "latitude": "6.721248", "longitude": "3.223329", "altitude": "190"}
        ,{"id": "mattm936", "team": "t39", "name": "Taedonggang Beer Brewery", "municipality": "Pyongyang", "country": "North Korea", "latitude": "39.0738", "longitude": "125.8198", "altitude": "95"}
        ,{"id": "Dstreeb", "team": "t21", "name": "Graff Brygghus", "municipality": "Tromso", "country": "Norway", "latitude": "69.42", "longitude": "19.0053", "altitude": "75"}
        ,{"id": "jacobrp", "team": "t24", "name": "Le Petit Belge", "municipality": "Muscat", "country": "Oman", "latitude": "23.57259", "longitude": "58.32125", "altitude": "310"}
        ,{"id": "tauren", "team": "t39", "name": "Brewery Limca & Juices", "municipality": "Karachi City", "country": "Pakistan", "latitude": "24.946298", "longitude": "67.072297", "altitude": "103"}
        ,{"id": "bdunahu", "team": "t27", "name": "Palau Brewing Company", "municipality": "Koror", "country": "Palau", "latitude": "7.340141", "longitude": "134.458824", "altitude": "7"}
        ,{"id": "lnlarson", "team": "t20", "name": "Taybeh Brewing Company", "municipality": "Taybeh", "country": "Palestine", "latitude": "31.956535", "longitude": "35.297467", "altitude": "2,822"}
        ,{"id": "hridayab", "team": "t28", "name": "Casa Bruja Brewing Co.", "municipality": "Panama City", "country": "Panama", "latitude": "9.00916667", "longitude": "-79.47861111", "altitude": "16"}
        ,{"id": "wadem", "team": "t18", "name": "South Pacific Brewery", "municipality": "Port Morsby", "country": "Papua New Guinea", "latitude": "-9.450959", "longitude": "147.193873", "altitude": "115"}
        ,{"id": "jpoppa", "team": "t36", "name": "The Hop: Craft Beer House", "municipality": "Fernando de la Mora", "country": "Paraguay", "latitude": "-25.323063", "longitude": "-57.553489", "altitude": "477"}
        ,{"id": "filip", "team": "t23", "name": "Leżajsk Brewery", "municipality": "Stare Miasto", "country": "Poland", "latitude": "50.27623", "longitude": "22.42486", "altitude": "564"}
        ,{"id": "chris310", "team": "t35", "name": "Cerveceria del Valle Sagrado", "municipality": "Pachar", "country": "Peru", "latitude": "-13.271891246414617", "longitude": "-72.21669587541744", "altitude": "9262"}
        ,{"id": "tyseef", "team": "t37", "name": "Duque Brewpub", "municipality": "Lisboa", "country": "Portugal", "latitude": "38.713133", "longitude": "-9.142511", "altitude": "236"}
        ,{"id": "jacob3", "team": "t16", "name": "Wicked Barrel Brewery", "municipality": "Sat Neagra", "country": "Romania", "latitude": "46.880109", "longitude": "25.982176", "altitude": "1732"}
        ,{"id": "mikemc24", "team": "t16", "name": "Baltika Breweries", "municipality": "St. Petersburg", "country": "Russia", "latitude": "60.294685", "longitude": "30.283713", "altitude": "44"}
        ,{"id": "ivans", "team": "t20", "name": "Birrificio Artigianale Sammarinese", "municipality": "Falciano", "country": "San Marino", "latitude": "43.980875", "longitude": "12.502297", "altitude": "450"}
        ,{"id": "erikrc", "team": "t27", "name": "BrewDog", "municipality": "Ellon", "country": "Scotland", "latitude": "57.36963995058479", "longitude": "-2.050489546884534", "altitude": "111"}
        ,{"id": "natebenn", "team": "t36", "name": "Dogma Brewery & Tap Room", "municipality": "Belgrade", "country": "Serbia", "latitude": "44.788615", "longitude": "20.423170", "altitude": "282"}
        ,{"id": "johnh9", "team": "t25", "name": "Diageo Brewaries", "municipality": "Island of Mahé", "country": "Seychelles", "latitude": "-4.736751", "longitude": "55.52262", "altitude": "16"}
        ,{"id": "colekump", "team": "t32", "name": "Sierra Leone Brewwery", "municipality": "Freetown", "country": "Sierra Leone", "latitude": "8.442414640923216", "longitude": "-13.165045168518905", "altitude": "85"}
        ,{"id": "Jstaut53", "team": "t30", "name": "Little Island Brewing", "municipality": "Changi Village", "country": "Singapore", "latitude": "1.307041", "longitude": "103.857151", "altitude": "36"}
        ,{"id": "elleryno", "team": "t18", "name": "Pelikaan Brewery", "municipality": "Cole Bay", "country": "Sint Maarten", "latitude": "18.03934012512504", "longitude": "-63.08655107049238", "altitude": "11"}
        ,{"id": "frogman3", "team": "t34", "name": "Pivovar Shenk", "municipality": "Bratislava", "country": "Slovakia", "latitude": "48.144960", "longitude": "17.111263", "altitude": "454"}
        ,{"id": "tste", "team": "t23", "name": "Green Gold Brewing", "municipality": "Šempeter v Savinjski Dolini", "country": "Slovenia", "latitude": "46.265876", "longitude": "15.114977", "altitude": "889"}
        ,{"id": "kitten", "team": "t31", "name": "Clarens Brewery", "municipality": "Clarens", "country": "South Africa", "latitude": "-28.511863", "longitude": "28.422330", "altitude": "5964"}
        ,{"id": "netsirt", "team": "t34", "name": "Nomadic Brewing Company", "municipality": "Wansan-gu", "country": "South Korea", "latitude": "35.816434", "longitude": "127.143792", "altitude": "45"}
        ,{"id": "yuj", "team": "t22", "name": "Granada Beer Company", "municipality": "Granada", "country": "Spain", "latitude": "37.2273396", "longitude": "-3.6501703", "altitude": "2129"}
        ,{"id": "cross35", "team": "t34", "name": "Lion Brewery Ceylon", "municipality": "Kaduwela", "country": "Sri Lanka", "latitude": "6.95246", "longitude": "79.97928", "altitude": "43"}
        ,{"id": "jecircen", "team": "t15", "name": "Stockholm Brewing Company", "municipality": "Stockholm", "country": "Sweden", "latitude": "59.3470", "longitude": "18.12006", "altitude": "3"}
        ,{"id": "kade5", "team": "t31", "name": "Rugenbraeu Brewery", "municipality": "Matten bei Interlaken", "country": "Switzerland", "latitude": "46.67061", "longitude": "7.85506", "altitude": "1886"}
        ,{"id": "sethhyde", "team": "t34", "name": "Ugly Half Brewing", "municipality": "New Taipei City", "country": "Taiwan", "latitude": "25.034320", "longitude": "121.520700", "altitude": "33.8"}
        ,{"id": "clayroby", "team": "t26", "name": "Barsburg Brewery", "municipality": "Khujand", "country": "Tajikistan", "latitude": "40.312041", "longitude": "69.656875", "altitude": "984"}
        ,{"id": "olivern", "team": "t22", "name": "Cervesa Boris Craft Beer ANDORRA", "municipality": "La Cortinada", "country": "Andorra", "latitude": "42.57691", "longitude": "1.52019", "altitude": "4379"}
        ,{"id": "pie2003", "team": "t12", "name": "Maluti Mountain Brewery", "municipality": "Maseru", "country": "Lesotho", "latitude": "-29.816342152396814", "longitude": "27.232122146962823", "altitude": "5430"}
        ,{"id": "voleskyj", "team": "t13", "name": "Tanzania Breweries Limited", "municipality": "Mbeya", "country": "Tanzania", "latitude": "-8.934382660775263", "longitude": "33.40554638116736", "altitude": "5300"}
        ,{"id": "spencebl", "team": "t00", "name": "Cascade Brewery", "municipality": "South Hobart", "country": "Tasmania", "latitude": "-42.7709", "longitude": "147.3486", "altitude": "728"}
        ,{"id": "malinj", "team": "t18", "name": "Chitbeer", "municipality": "Ko Kret", "country": "Thailand", "latitude": "13.909167", "longitude": "100.490556", "altitude": "20"}
        ,{"id": "shliu", "team": "t25", "name": "Brasserie BB de Kara", "municipality": "Kara", "country": "Togo", "latitude": "27.538997402673104", "longitude": "99.48448946362194", "altitude": "197"}
        ,{"id": "adavachi", "team": "t32", "name": "Carib Brewery Ltd", "municipality": "St. Joseph", "country": "Trinidad and Tobago", "latitude": "10.639160", "longitude": "-61.281130", "altitude": "230"}
        ,{"id": "bmattes", "team": "t39", "name": "Torch Brewery", "municipality": "Istanbul", "country": "Turkey", "latitude": "41.058409", "longitude": "28.980815", "altitude": "331"}
        ,{"id": "sharling", "team": "t37", "name": "Zip Brewery", "municipality": "Ashgabat", "country": "Turkmenistan", "latitude": "38.058341222076564", "longitude": "58.18909349953946", "altitude": "896"}
        ,{"id": "harvin", "team": "t13", "name": "Uganda Breweries Limited", "municipality": "Kampala", "country": "Uganda", "latitude": "0.293548", "longitude": "32.653335", "altitude": "3763"}
        ,{"id": "ethanju", "team": "t32", "name": "Varvar Brew", "municipality": "Kyiv", "country": "Ukraine", "latitude": "50.2824", "longitude": "30.3526", "altitude": "344"}
        ,{"id": "goron117", "team": "t25", "name": "Aujan Industries Co.", "municipality": "Dubai", "country": " United Arab Emirates", "latitude": "24.977834", "longitude": "55.165449", "altitude": "0"}
        ,{"id": "jonwc", "team": "t23", "name": "Meantime Brewing Company", "municipality": "London", "country": "United Kingdom", "latitude": "51.489445", "longitude": "0.008490", "altitude": "2"}
        ,{"id": "dmcyde", "team": "t16", "name": "Montevideo Brew House", "municipality": "Montevideo", "country": "Uruguay", "latitude": "34.9104", "longitude": "56.1573", "altitude": "141"}
        ,{"id": "martel", "team": "t25", "name": "Carlsberg Uzbekistan", "municipality": "Tashkent", "country": "Uzbekistan", "latitude": "41.299751", "longitude": "69.353963", "altitude": "1504"}
        ,{"id": "cjbeall", "team": "t26", "name": "Cerveceria Tovar", "municipality": "Colonia Tovar", "country": "Venezuela", "latitude": "10.40724", "longitude": "-67.29041", "altitude": "6233"}
        ,{"id": "jackwob", "team": "t37", "name": "7 Bridges Brewing", "municipality": "Da Nang", "country": "Vietnam", "latitude": "16.074100", "longitude": "108.228900", "altitude": "141"}
        ,{"id": "bleple", "team": "t31", "name": "Wild Dog Beer", "municipality": "Lusaka", "country": "Zambia", "latitude": "-15.3855625", "longitude": "28.2688906", "altitude": "4140"}
        ,{"id": "dpoppa4", "team": "t38", "name": "Ngoda Breweries", "municipality": "Harare", "country": "Zimbabwe", "latitude": "-17.894047", "longitude": "31.231933", "altitude": "5066"}
        ,{"id": "atlat", "team": "t17", "name": "High Alpine Brewing Company", "municipality": "Gunnison", "latitude": "39.174930", "longitude": "-106.955120", "altitude": "10997"}
	,{"id": "cruzfm", "team": "t33", "name": "South Park Brewing", "municipality": "Fairplay", "latitude": "39.22031", "longitude": "-105.99261", "altitude": "9950"}
	,{"id": "awbrown0", "team": "t38", "name": "Breckenridge Brewery & Pub", "municipality": "Breckenridge", "latitude": "39.476208363683554", "longitude": "-106.04374235120592", "altitude": "9633"}
	,{"id": "jernberg", "team": "t23", "name": "Broken Compass Brewing", "municipality": "Breckenridge", "latitude": "39.51636970604681", "longitude": "-106.0536025249597", "altitude": "9623"}
	,{"id": "cross35", "team": "t34", "name": "Outer Range Brewing Co", "municipality": "Frisco", "latitude": "39.58944", "longitude": "-106.09915", "altitude": "9,200"}
	,{"id": "shliu", "team": "t25", "name": "The Noble Buck", "municipality": "Winter Park", "latitude": "39.92412263433858", "longitude": "-105.7863620851514", "altitude": "9121"}
	,{"id": "cgramey", "team": "t22", "name": "Paradox Beer Company", "municipality": "Divide", "latitude": "38.94437", "longitude": "-105.15521", "altitude": "9117"}
	,{"id": "boolinn", "team": "t15", "name": "Dillon DAM Brewery", "municipality": "Summit", "latitude": "39.627659", "longitude": "-106.060387", "altitude": "9111"}
	,{"id": "dineshg", "team": "t33", "name": "Sky High Brewing", "municipality": "Frisco", "latitude": "40.165460", "longitude": "-105.061300", "altitude": "9097"}
	,{"id": "kitten", "team": "t31", "name": "Irwin Brewing Company's Public House", "municipality": "Crested Butte", "latitude": "38.86973", "longitude": "-106.98740", "altitude": "8885"}
	,{"id": "driva", "team": "t11", "name": "Big Trout Brewing", "municipality": "Winter Park", "latitude": "39.91747", "longitude": "-105.78511", "altitude": "8812"}
	,{"id": "dschmuck", "team": "t29", "name": "Vicious Cycle Brewing Company", "municipality": "Fraser", "latitude": "39.941180", "longitude": "-105.807100", "altitude": "8579"}
	,{"id": "Dstreeb", "team": "t21", "name": "Golden Block Brewery", "municipality": "Silverton", "latitude": "37.4839", "longitude": "-107.3947", "altitude": "8508"}
	,{"id": "riggsx2", "team": "t27", "name": "Cabin Creek Brewing", "municipality": "Georgetown", "latitude": "39.723801", "longitude": "-105.692326", "altitude": "8451"}
	,{"id": "natebenn", "team": "t36", "name": "Busey Brews", "municipality": "Nederland", "latitude": "39.96180", "longitude": "-105.50891", "altitude": "8234"}
	,{"id": "toreskey", "team": "t37", "name": "Eddyline Brewery and Taproom", "municipality": "Buena Vista", "latitude": "38.840614", "longitude": "-106.132644", "altitude": "7960"}
	,{"id": "emsims", "team": "t31", "name": "T Road Brewing Company", "municipality": "Crestone", "latitude": "37.99418762159231", "longitude": "-105.69936317747097", "altitude": "7923"}
	,{"id": "wadem", "team": "t18", "name": "Aspen Brewing Company", "municipality": "Aspen", "latitude": "39.189784", "longitude": "-106.818409", "altitude": "7908"}
        ,{"id": "clayroby", "team": "t26", "name": "Three Barrels Brewing Company", "municipality": "Del Norte", "latitude": "37.678726", "longitude": "-106.356653", "altitude": "7874"}
	,{"id": "sofia02c", "team": "t20", "name": "High Alpine Brewing Company", "municipality": "Gunnison", "latitude": "38.54475", "longitude": "-106.92713", "altitude": "7703"}
	,{"id": "netsirt", "team": "t34", "name": "The Colorado Farm Brewery", "municipality": "Alamosa", "latitude": "37.4002033", "longitude": "-106.0010391", "altitude": "7585"}
	,{"id": "scott20", "team": "t33", "name": "Rock Cut Brewing Company", "municipality": "Estes Park", "latitude": "40.371828", "longitude": "-105.522949", "altitude": "7522"}
        ,{"id": "peasleed", "team": "t24", "name": "Grand Adventure Brewing Co.", "municipality": "Kremmling", "latitude": "40.0601681", "longitude": "-106.3930637", "altitude": "7357"}
	,{"id": "bli45", "team": "t21", "name": "Riff Raff Brewing Company", "municipality": "Pagosa Springs", "latitude": "37.269015", "longitude": "-107.007373", "altitude": "7171"}
	,{"id": "mikemc24", "team": "t16", "name": "Pikes Peak Brewing Company", "municipality": "Monument", "latitude": "39.095429", "longitude": "-104.860185", "altitude": "7136"}
	,{"id": "ejpitera", "team": "t26", "name": "Soulcraft Brewing", "municipality": "Salida", "latitude": "38.524444", "longitude": "-106.0061111111", "altitude": "7083"}
	,{"id": "pbmcg", "team": "t38", "name": "Mountain Merman Brewing Company", "municipality": "La veta", "latitude": "37.51", "longitude": "-105.01", "altitude": "7030"}
	,{"id": "dbh2001", "team": "t15", "name": "San Luis Valley Brewing Company", "municipality": "Alamosa", "latitude": "37.2805", "longitude": "-105.5201", "altitude": "6897"}
	,{"id": "jackwob", "team": "t37", "name": "Mountain Tap Brewery", "municipality": "Steamboat Springs", "latitude": "40.486549", "longitude": "-106.836990", "altitude": "6699"}
        ,{"id": "hsteve", "team": "t12", "name": "Storm Peak Brewing Company", "municipality": "Steamboat Springs", "latitude": "40.502218", "longitude": "-106.854965", "altitude": "6677"}
        ,{"id": "rossp", "team": "t30", "name": "Colorado Mountain Brewery", "municipality": "Colorado Springs", "latitude": "38.992820", "longitude": "-104.810554", "altitude": "6638"}
	,{"id": "minibray", "team": "t24", "name": "Eagle River Brewing Company", "municipality": "Gypsum", "latitude": "39.633020", "longitude": "-106.909170", "altitude": "6614"}
	,{"id": "qmeisman", "team": "t33", "name": "Anarchy Brewing Company", "municipality": "Durango", "latitude": "37.26481", "longitude": "-107.87361", "altitude": "6522"}
	,{"id": "bdunahu","team":"t27","name":"Ska Brewing Company","municipality":"Durango","latitude":"37.238849","longitude":"-107.876131","altitude":"6512"}
	,{"id": "kade5", "team": "t31", "name": "Animas Brewing Company", "municipality": "Durango", "latitude": "37.2799866", "longitude": "-107.8768544", "altitude": "6512"}
	,{"id": "glemicnt", "team": "t39", "name": "Yampa Valley Brewing Company", "municipality": "Hayden", "latitude": "40.535567", "longitude": "-107.550550", "altitude": "6434"}
	,{"id": "ethanju", "team": "t32", "name": "FH Beerworks", "municipality": "Colorado Springs", "latitude": "38.86770", "longitude": "-104.72193", "altitude": "6391"}
	,{"id": "tauren", "team": "t39", "name": "Trinity Brewing Company", "municipality": "Colorado Springs", "latitude": "38.897360", "longitude": "-104.855101", "altitude": "6372"}
	,{"id": "rocarrol", "team": "t38", "name": "Raices Brewing Company", "municipality": "Denver", "latitude": "39.73948", "longitude": "-105.01716", "altitude": "6326"}
	,{"id": "cdegen", "team": "t34", "name": "Great Divide Brewery & Roadhouse", "municipality": "Castle Rock", "latitude": "39.37178", "longitude": "-104.86045", "altitude": "6224"}
	,{"id": "dmcyde", "team": "t16", "name": "105 West Brewing Company", "municipality": "Castle Rock", "latitude": "39.3806825", "longitude": "-104.865804", "altitude": "6224"}
	,{"id": "pavanomp", "team": "t38", "name": "WildEdge Brewing Collective", "municipality": "Cortez", "latitude": "37.349972", "longitude": "-108.585663", "altitude": "6191"}
	,{"id": "alifayed", "team": "t30", "name": "OCC Brewing", "municipality": "Colorado Springs", "latitude": "38.8459045", "longitude": "-104.8602721", "altitude": "6104"}
	,{"id": "blakebri", "team": "t19", "name": "Bell Brothers Brewing", "municipality": "Colorado Springs", "latitude": "38.83580732", "longitude": "-104.82369864", "altitude": "6043"}
	,{"id": "coreydc", "team": "t37", "name": "Red Swing Brewhouse", "municipality": "Colorado Springs", "latitude": "38.82608281668586", "longitude": "-104.82374814602203", "altitude": "6033"}
        ,{"id": "rpcme", "team": "t28", "name": "Cannonball Creek Brewing Company", "municipality": "Golden", "latitude": "39.768578", "longitude": "-105.235097", "altitude": "5881"}
	,{"id": "goron117", "team": "t25", "name": "Barnett & Son Brewing Company", "municipality": "Parker", "latitude": "39.52224", "longitude": "-104.77501", "altitude": "5869"}
	,{"id": "kypes", "team": "t27", "name": "Downhill Brewing Company", "municipality": "Parker", "latitude": "39.52715", "longitude": "-104.77019", "altitude": "5869"}
	,{"id": "motley3", "team": "t17", "name": "Horsefly Brewing Company", "municipality": "Montrose", "latitude": "38.482931939772804", "longitude": "-107.8714099892221", "altitude": "5807"}
	,{"id": "elisong", "team": "t36", "name": "Two22 Brew", "municipality": "Centennial", "latitude": "39.3810", "longitude": "-104.4526", "altitude": "5804"}
        ,{"id": "jonwc", "team": "t23", "name": "Lone Tree Brewing Company", "municipality": "Lone Tree", "latitude": "39.562528", "longitude": "-104.892941", "altitude": "5778"}
        ,{"id": "martel", "team": "t25", "name": "Resolute Brewing Company", "municipality": "Centennial", "latitude": "39.584501", "longitude": "-104.884805", "altitude": "5777"}
	,{"id": "harvin", "team": "t13", "name": "Spice Trade Brewing Company", "municipality": "Greenwood Village", "latitude": "39.610060", "longitude": "-104.887780", "altitude": "5705"}
        ,{"id": "mattm936", "team": "t39", "name": "Molson Coors", "municipality": "Golden", "latitude": "39.767286", "longitude": "-105.228963", "altitude": "5675"}
	,{"id": "johnh9", "team": "t25", "name": "Coal Mine Ave Brewing Company", "municipality": "Littleton", "latitude": "39.596170", "longitude": "-105.106130", "altitude": "5670"}
	,{"id": "jakobp", "team": "t17", "name": "6 and 40 Brewery", "municipality": "Lakewood", "latitude": "39.73056", "longitude": "-105.1219", "altitude": "5624"}
        ,{"id": "voleskyj", "team": "t13", "name": "Ohm Brewing Company", "municipality": "Golden", "latitude": "39.74647712801897", "longitude": "-105.14412536924108", "altitude": "5600"}
	,{"id": "malinj", "team": "t18", "name": "A Bit Twisted Brewpub", "municipality": "Aurora", "latitude": "39.660833", "longitude": "-104.847778", "altitude": "5597"}
	,{"id": "omarwrs", "team": "t36", "name": "Old 121 Brewhouse", "municipality": "Lakewood", "latitude": "39.698200", "longitude": "-105.082387", "altitude": "5544"}
	,{"id": "cribbs", "team": "t21", "name": "Living The Dream Brewing Company", "municipality": "Littleton", "latitude": "39.54073131640608", "longitude": "-105.03981678579733", "altitude": "5541"}
	,{"id": "ahanna1", "team": "t29", "name": "Great Frontier Brewing Company", "municipality": "Lakewood", "latitude": "39.681505", "longitude": "-105.117626", "altitude": "5518"}
	,{"id": "aryanadv", "team": "t25", "name": "4 Noses Brewing Company", "municipality": "Broomfield", "latitude": "39.90665", "longitude": "-105.09865327408876", "altitude": "5515"}
	,{"id": "alexr11", "team": "t11", "name": "Green Mountain Beer Company", "municipality": "Lakewood", "latitude": "39.669090", "longitude": "-105.113120", "altitude": "5512"}
        ,{"id": "abby5655", "team": "t14", "name": "Bambei Brewing", "municipality": "Superior", "latitude": "39.95674", "longitude": "-105.16399", "altitude": "5499"}
	,{"id": "cjbeall", "team": "t26", "name": "Cervecería Colorado", "municipality": "Denver", "latitude": "39.75824506662939", "longitude": "-105.00750798832297", "altitude": "5485"}
	,{"id": "ally426", "team": "t18", "name": "Rocks & Hops Brewing", "municipality": "Boulder", "latitude": "40.0117", "longitude": "-105.1409", "altitude": "5430"}
        ,{"id": "eldridg", "team": "t20", "name": "Brewery Rickoli", "municipality": "Wheat Ridge", "latitude": "39.77597", "longitude": "-105.08192", "altitude": "5423"}
	,{"id": "jaispuro", "team": "t23", "name": "Southern Sun Pub & Brewery", "municipality": "Boulder", "latitude": "39.98432837686606", "longitude": "-105.24937565537086", "altitude": "5420"}
        ,{"id": "kmjager", "team": "t35", "name": "Rails End Beer Company", "municipality": "Broomfield", "latitude": "39.908633", "longitude": "-105.075117", "altitude": "5420"}
        ,{"id": "jacob3", "team": "t16", "name": "Fiction Beer Company", "municipality": "Denver", "latitude": "39.740334", "longitude": "-104.905694", "altitude": "5417"}
	,{"id": "TristanTruxal", "team": "t17", "name": "Banded Oak Brewing Company", "municipality": "Denver", "latitude": "39.72388", "longitude": "-104.98709", "altitude": "5417"}
	,{"id": "dmorigea", "team": "t28", "name": "Ursula Brewery", "municipality": "Aurora", "latitude": "39.7483128", "longitude": "-104.83804719999999", "altitude": "5415"}
	,{"id": "maxinego", "team": "t14", "name": "Cerebral Brewing (Aurora Arts)", "municipality": "Aurora", "latitude": "39.740889", "longitude": "-104.830027", "altitude ": "5403"}
        ,{"id": "sharling", "team": "t37", "name": "Launchpad Brewery", "municipality": "Aurora", "latitude": "39.70147695574206", "longitude": "-104.7901606193607", "altitude": "5403"}
	,{"id": "ryanc70", "team": "t27", "name": "Berkeley Alley Beer Company", "municipality": "Denver", "latitude": "39.776113", "longitude": "-105.043747", "altitude": "5400"}
	,{"id": "Tsyber", "team": "t31", "name": "The Grateful Gnome Sandwich Shoppe & Brewery", "municipality": "Denver", "latitude": "39.7764", "longitude": "-105.0432", "altitude": "5397"}
	,{"id": "jacopo","team": "t19", "name": "Hogshead Brewery", "municipality": "Denver", "latitude": "39.7583302", "longitude": "-105.0446342", "altitude": "5392"}
        ,{"id": "bachrock", "team": "t11", "name": "Windfall Brewing Company", "municipality": "Westminster", "latitude": "39.8931819", "longitude": "-105.083037", "altitude": "5364"}
        ,{"id": "ingjacob", "team": "t28", "name": "Satire Brewing Company", "municipality": "Thornton", "latitude": "39.917271", "longitude": "-104.983040", "altitude": "5351"}
	,{"id": "tamo", "team": "t26", "name": "World's End Brewing Company", "municipality": "Canon", "latitude": "38.4402777778", "longitude": "-105.2419444444", "altitude": "5351"}
	,{"id": "jpoppa", "team": "t36", "name": "Joyride Brewing Company", "municipality": "Edgewater", "latitude": "39.753134", "longitude": "-105.053452", "altitude": "5349"}
	,{"id": "yuj", "team": "t22", "name": "12Degree Brewing", "municipality": "Louisville", "latitude": "39.978273", "longitude": "-105.131921", "altitude": "5347"}
	,{"id": "dpoppa4", "team": "t38", "name": "Danico Brewing Company", "municipality": "Denver", "latitude": "39.815673", "longitude": "-104.771739", "altitude": "5342"}
        ,{"id": "aaouaj", "team": "t11", "name": "Second Dawn Brewing", "municipality": "Aurora", "latitude": "39.751464", "longitude": "-104.874902", "altitude": "5310"}
	,{"id": "cnading", "team": "t30", "name": "Dozens Brewery","municipality": "Denver", "latitude": "39.4409", "longitude": "-104.5921", "altitude": "5306"}
	,{"id": "krisbarn", "team": "t14", "name": "Wonderland Brewing Company", "municipality": "Broomfield", "latitude": "39.913502", "longitude": "-105.056061", "altitude": "5304"}	    
        ,{"id": "olivern", "team": "t22", "name": "Zuni Street Brewing Company", "municipality": "Denver", "latitude": "39.75939", "longitude": "-105.01518", "altitude": "5282"}
	,{"id": "Janette", "team": "t18", "name": "Alpine Dog Brewing Company", "municipality": "Denver", "latitude": "39.7430807", "longitude": "-104.9705853", "altitude": "5276"}
        ,{"id": "nael", "team": "t15", "name": "Baere Brewing Company", "municipality": "Denver", "latitude": "39.73168687", "longitude": "-104.9826502", "altitude": "5276"}
	,{"id": "tste", "team": "t23", "name": "Wynkoop Brewing Company", "municipality": "Denver", "latitude": "39.75341912645649", "longitude": "-104.99855134627802", "altitude": "5276"}
        ,{"id": "pie2003", "team": "t12", "name": "Grandma's House", "municipality": "Denver", "latitude": "39.68548", "longitude": "-104.98736", "altitude": "5274"}
	,{"id": "Jstaut53", "team": "t30", "name": "Dos Luces", "municipality": "Denver", "latitude": "39.694158", "longitude": "-104.987249", "altitude": "5269"}
	,{"id": "jasoncur", "team": "t16", "name": "Black Sky Brewery", "municipality": "Denver", "latitude": "39.72408", "longitude": "-104.99839", "altitude": "5265"}
        ,{"id": "bleple", "team": "t31", "name": "Altitude Brewing & Supply", "municipality": "Denver", "latitude": "39.7796433", "longitude": "-105.0067514", "altitude": "5255"}
	,{"id": "oli", "team": "t35", "name": "So Many Roads Museum and Brewery", "municipality": "Denver", "latitude": "39.71762", "longitude": "-104.99922", "altitude": "5238"}
	,{"id": "timand", "team": "t30", "name": "Pints Pub Brewery & Freehouse", "municipality": "Denver", "latitude": "39.736980", "longitude": "-104.990860", "altitude": "5236"}
	,{"id": "nfotis", "team": "t36", "name": "Bruz Beers", "municipality": "Denver", "latitude": "39.711660", "longitude": "-104.900660", "altitude": "5227.4"}
	,{"id": "mpoppa1", "team": "t12", "name": "Wild Provisions Beer Project" , "municipality": "Boulder", "latitude": "40.021681", "longitude": "-105.219027", "altitude": "5213"}
	,{"id": "jennifar", "team": "t20", "name": "Avery Brewing Company", "municipality": "Boulder", "latitude": "40.062586", "longitude": "-105.204699", "altitude": "5210"}
	,{"id": "sethhyde", "team": "t34", "name": "The Sandlot Brewery", "municipality": "Denver", "latitude": "39.75559", "longitude": "-104.99280", "altitude": "5206"}
	,{"id": "sereno", "team": "t32", "name": "Sparge Brewing", "municipality": "Wellington", "latitude": "40.68187144779669", "longitude": "-105.00183367743314", "altitude": "5200"}
        ,{"id": "anjoke", "team": "t11", "name": "14er Brewing & Beer Garden", "municipality": "Denver", "latitude": "39.76502831732196", "longitude": "-104.98016041640788", "altitude": "5194"}
	,{"id": "chris310", "team": "t35", "name": "New Belgium Brewing – The Woods at The Source", "municipality": "Denver", "latitude": "39.768704998521", "longitude": "-104.98052180121299", "altitude": "5190"}
	,{"id": "norwick", "team": "t12", "name": "Intersect Brewing", "municipality": "Fort Collins", "latitude": "40.554209", "longitude": "-105.117830", "altitude": "5098"}
	,{"id": "royaliz", "team": "t14", "name": "Fritz Family Brewers", "municipality": "Niwot", "latitude": "40.099860", "longitude": "-105.168398", "altitude": "5097"}
	,{"id": "jecircen", "team": "t15", "name": "Stodgy Brewing Company", "municipality": "Fort Collins", "latitude": "40.58954", "longitude": "-105.10858", "altitude": "5053"}
        ,{"id": "filip", "team": "t23", "name": "Berthoud Brewing Loveland", "municipality": "Loveland", "latitude": "40.40768", "longitude": "-105.12956", "altitude": "5049"}
	,{"id": "rollo", "team": "t32", "name": "The Handlebar Factory", "municipality": "Erie", "latitude": "40.04604794934224", "longitude": "-105.05605478954911", "altitude": "5048"}	
	,{"id": "tyseef", "team": "t37", "name": "Zwei Brewing Co.", "municipality": "Fort Collins", "latitude": "40.522710", "longitude": "-105.078185", "altitude": "5026"}
        ,{"id": "rnuguru", "team": "t22", "name": "Black Bottle Brewery", "municipality": "Fort Collins", "latitude": "40.5663803", "longitude": "-105.0786476", "altitude": "5006"}
	,{"id": "elleryno", "team": "t18", "name": "Envy Brewing", "municipality": "Fort Collins", "latitude": "40.52284913708447", "longitude": "-105.02121984684504", "altitude": "5003"}
	,{"id": "emmars", "team": "t35", "name": "Funkwerks", "municipality": "Fort Collins", "latitude": "40.583111", "longitude": "-105.042204", "altitude": "5003"}
        ,{"id": "ewc97712", "team": "t16", "name": "Prost Biergarten", "municipality": "Fort Collins", "latitude": "40.568148", "longitude": "-105.076515", "altitude": "5003"}
	,{"id": "ian1363", "team": "t15", "name": "Snowbank Brewing", "municipality": "Fort Collins", "latitude": "40.59016", "longitude": "-105.05821", "altitude": "5003"}
	,{"id": "frogman3", "team": "t34", "name": "Sky Bear Brewery and Pub", "municipality": "Loveland", "latitude": "40.39610", "longitude": "-105.07393", "altitude": "5000"}
	,{"id": "delta27", "team": "t21", "name": "Verboten Brewing & Barrel Project", "municipality": "Loveland", "latitude": "40.396824", "longitude": "-105.075219", "altitude": "4993"}
	,{"id": "gabimcd", "team": "t33", "name": "Maxline Brewing", "municipality": "Fort Collins", "latitude": "40.5497", "longitude": "-105.0793", "altitude": "4982"}
	,{"id": "truongak", "team": "t28", "name": "Mountain Cowboy Brewing Company", "municipality": "Frederick", "latitude": "40.098690", "longitude": "-104.938019", "altitude": "4980"}
	,{"id": "zakider", "team": "t39", "name": "Equinox Brewing Company", "municipality": "Fort Collins", "latitude": "40.586410", "longitude": "-105.075834", "altitude": "4980"}
	,{"id": "cookls", "team": "t35", "name": "Bootstrap Brewing Company", "municipality": "Longmont", "latitude": "40.161449", "longitude": "-105.106316", "altitude": "4979"}
  	,{"id": "gerardov","team": "t19", "name": "Knuckle Puck Brewery Kombucha & Beer", "municipality": "Longmont", "latitude": "40.2017984", "longitude": "-104.9768242", "altitude": "4979"}
	,{"id": "hridayab", "team": "t28", "name": "300 Suns Brewing", "municipality": "Longmont", "latitude": "40.1599201", "longitude": "-105.101274", "altitude": "4979"}
	,{"id": "jthiggin", "team": "t29", "name": "Wibby Brewing", "municipality": "Longmont", "latitude": "40.162431", "longitude": "-105.100185", "altitude": "4979"}
	,{"id": "arapport", "team": "t22", "name": "Mirror Image Brewing", "municipality": "Frederick", "latitude": "40.111690", "longitude": "-104.945500", "altitude": "4975"}
  	,{"id":"adavachi", "team":"t32","name":"Left Hand Brewing Company","municipality":"Longmont","latitude":"40.15849516304544","longitude":"-105.11496429492485","altitude":"4964"}
        ,{"id": "evanloy", "team": "t26", "name": "Odell Brewing Company", "municipality": "Fort Collins", "latitude": "40.58912", "longitude": "-105.06324", "altitude": "4964"}
	,{"id": "humaid99", "team": "t17", "name": "Verboten Brewing", "municipality": "Loveland", "latitude": "40.398857", "longitude": "-105.052643", "altitude": "4964"}    
	,{"id": "ballard2", "team": "t24", "name": "Großen Bart Brewery", "municipality": "Longmont", "latitude": "40.154415", "longitude": "-105.109234", "altitude": "4957"}
	,{"id": "ahuss12", "team": "t13", "name": "Collision Brewing Company & Restaurant", "municipality": "Longmont", "latitude": "40.157553", "longitude": "-105.033192", "altitude": "4947"}
	,{"id": "bmattes", "team": "t39", "name": "Horse and Dragon Brewing Company", "municipality": "Fort Collins", "latitude": "40.589662", "longitude": "-105.045625", "altitude": "4945"}
	,{"id": "cjsahlen", "team": "t13", "name": "DC Oakes Brewhouse and Eatery", "municipality": "Fort Collins", "latitude": "40.522711", "longitude": "-105.011722", "altitude": "4935"}
	,{"id": "evelynn", "team": "t35", "name": "Crabtree Brewing Company", "municipality": "Greeley", "latitude": "40.39083333", "longitude": "-104.72694444", "altitude": "4836"}
        ,{"id": "ver", "team": "t24", "name": "Rule105 Brewing Company", "municipality": "Greeley", "latitude": "40.4219313", "longitude": "-104.7576368", "altitude": "4806"}
	,{"id": "lnlarson", "team": "t20", "name": "Brues Alehouse Brewing Company" , "municipality": "Pueblo", "latitude": "38.265665", "longitude": "-104.610022", "altitude": "4692"}
        ,{"id": "erikrc", "team": "t27", "name": "WeldWerks Brewing Company", "municipality": "Greeley", "latitude": "40.42803", "longitude": "-104.69059", "altitude": "4675"}
	,{"id": "drakeem", "team": "t14", "name": "Trail Life Brewing", "municipality": "Grand Junction", "latitude": "39.067721", "longitude": "-108.565264", "altitude": "4612"}
        ,{"id": "ivans", "team": "t20", "name": "Kannah Creek: Edgewater Brewery", "municipality": "Grand Junction", "latitude": "39.055013", "longitude": "-108.557216", "altitude":"4603"}
	,{"id": "jacobrp", "team": "t24", "name": "Suds Brothers Brewery II", "municipality": "Fruita", "latitude": "39.15913", "longitude": "-108.73272", "altitude": "4514"}
	,{"id": "kedrick", "team": "t13", "name": "Copper Club Brewing Company", "municipality": "Fruita", "latitude": "39.160036", "longitude": "-108.732756", "altitude": "4503"}
        ,{"id": "birch1", "team": "t29", "name": "Tumbleweed Brewing and Wine Company", "municipality": "Yuma", "latitude": "40.12469104079743", "longitude": "-102.72420543220821", "altitude": "4144"}
	,{"id": "colekump", "team": "t32", "name": "Parts and Labor Brewing Company", "municipality": "Sterling", "latitude": "40.62503974", "longitude": "-103.20977744", "altitude": "3875"}    
        ,{"id": "davematt", "team": "t00", "name": "Steamworks Brewing Company", "municipality": "Durango", "latitude": "37.278887", "longitude": "-107.873908", "altitude": "0"}
        ,{"id": "spencebl", "team": "t00", "name": "Copper Kettle Brewing Company", "municipality": "Denver", "latitude": "39.69201", "longitude": "-104.8896", "altitude": "5485"}
		,{"id": "cdegen", "team": "t34", "name": "Avondale Brewing Company", "municipality": "Birmingham", "region": "Alabama", "latitude": "33.5247500", "longitude": "-86.7742009", "altitude": "597"}
        ,{"id": "atlat", "team": "t17", "name": "Cross-Eyed Owl Brewing Company", "municipality": "Decatur", "region": "Alabama", "latitude": "34.60521", "longitude": "-86.98661", "altitude": "610"}
        ,{"id": "Dstreeb", "team": "t21", "name": "Fairhope Brewing Company", "municipality": "Fairhope", "region": "Alabama", "latitude": "30.3057", "longitude": "-87.5305", "altitude": "120"}
        ,{"id": "aaouaj", "team": "t11", "name": "Iron Hand Brewing", "municipality": "Mobile", "region": "Alabama", "latitude": "30.695533", "longitude": "-88.045358", "altitude": "43"}
        ,{"id": "voleskyj", "team": "t13", "name": "Common Bond Brewers", "municipality": "Montgomery", "region": "Alabama", "latitude": "32.6312108325637", "longitude": "-86.28111110080427", "altitude": "171"}
        ,{"id": "rollo", "team": "t32", "name": "Bootleg Botanicals", "municipality": "Buckeye", "region": "Arizona", "latitude": "33.39010120062209", "longitude": "-112.58883482355058", "altitude": "869.4226"}
	,{"id": "cruzfm", "team": "t33", "name": "SanTan Brewing Company", "municipality": "Chandler", "region": "Arizona", "latitude": "33.303242", "longitude": "-111.842552", "altitude": "1211"}
	,{"id": "arapport", "team": "t22", "name": "Smelter Town Brewery", "municipality": "Clarkdale", "region": "Arizona", "latitude": "34.770880", "longitude": "-112.058430", "altitude": "3576"}
	,{"id": "motley3", "team": "t17", "name": "Flagstaff Brewing Company", "municipality": "Flagstaff", "region": "Arizona", "latitude": "35.197517", "longitude": "-111.648438", "altitude": "6910"}
        ,{"id": "kypes", "team": "t27", "name": "12 West Brewing Co.", "municipality": "Mesa", "region": "Arizona", "latitude": "33.41590", "longitude": "-111.83210", "altitude": "1326"}
	,{"id": "tste", "team": "t23", "name": "Firetruck Brewing Company", "municipality": "Oro Valley", "region": "Arizona", "latitude": "32.381534", "longitude": "-110.962819", "altitude": "2620"}
        ,{"id": "bleple", "team": "t31", "name": "Grand Avenue Brewing Company", "municipality": "Phoenix", "region": "Arizona", "latitude": "33.4558044", "longitude": "-112.0884833", "altitude": "1079"}
	,{"id": "humaid99", "team": "t17", "name": "Black Horse Brewery", "municipality": "Show Low", "region": "Arizona", "latitude": "34.0489", "longitude": "-111.093735", "altitude": "4100"}
        ,{"id": "jackwob", "team": "t37", "name": "Gravity BrewWorks", "municipality": "Big Flat", "region": "Arkansas", "latitude": "36.009630", "longitude": "-92.378830", "altitude": "1253"}
        ,{"id": "kitten", "team": "t31", "name": "Diamond Bear Brewing Company", "municipality": "North Little Rock", "region": "Arkansas", "latitude": "34.760480", "longitude": "-92.272660", "altitude": "335"}
        ,{"id": "cribbs", "team": "t21", "name": "Brewery X", "municipality": "Anaheim", "region": "California", "latitude": "33.85315403281916", "longitude": "-117.85463866268687", "altitude": "226"}
        ,{"id": "driva", "team": "t11", "name": "Firestone Walker Brewing Company", "municipality": "Buellton", "region": "California", "latitude": "34.64718", "longitude": "-120.19866", "altitude": "377"}
	,{"id": "dmorigea", "team": "t28", "name": "Danville Brewing Company", "municipality": "Danville", "region": "California", "latitude": "37.820988199999995", "longitude": "-122.00012260000001", "altitude": "362"}
        ,{"id": "evanloy", "team": "t26", "name": "Sudwerk Brewing Co.", "municipality": "Davis", "region": "California", "latitude": "38.54710", "longitude": "-121.72493", "altitude": "39"}
	,{"id": "yuj", "team": "t22", "name": "Three Weavers Brewing Company", "municipality": "Inglewood", "region": "California", "latitude": "33.9611336", "longitude": "-118.3746345", "altitude": "108.268"}
	,{"id": "bli45", "team": "t21", "name": "California Coast Beer Company", "municipality": "Paso Robles", "region": "California", "latitude": "35.630874", "longitude": "-120.687958", "altitude": "698"}
	,{"id": "sereno", "team": "t32", "name": "Lagunitas Brewing Company", "municipality": "Petaluma", "region": "California", "latitude": "38.27203", "longitude": "-122.66296", "altitude": "33"}
	,{"id": "gerardov", "team": "t19", "name": "Route 30 Brewing Company", "municipality": "Riverside", "region": "California", "latitude": "33.983643", "longitude": "-117.374913", "altitude": "860"}
        ,{"id": "hsteve", "team": "t12", "name": "Oak Park Brewing Company", "municipality": "Sacramento", "region": "California", "latitude": "38.5529", "longitude": "-121.4697", "altitude": "30"}
        ,{"id": "jonwc", "team": "t23", "name": "AleSmith Brewing Company", "municipality": "San Diego", "region": "California", "latitude": "32.888161", "longitude": "-117.149861", "altitude": "423"}
        ,{"id": "aryanadv", "team": "t25", "name": "Olfactory Brewing & Blending", "municipality": "San Francisco", "region": "California", "latitude": "37.761358", "longitude": "-122.388409", "altitude": "89"}
        ,{"id": "rnuguru", "team": "t22", "name": "ShaKa Brewing", "municipality": "Sunnyvale", "region": "California", "latitude": "37.376970", "longitude": "-122.012690", "altitude": "62.3"}
        ,{"id": "davematt", "team": "t00", "name": "New Belgium Brewing Company", "municipality": "Fort Collins", "region": "Colorado", "latitude": "40.5932376", "longitude": "-105.068601", "altitude": "4967"}
	,{"id": "johnh9", "team": "t25", "name": "Tox Brewing Company", "municipality": "New London", "region": "Connecticut", "latitude": "41.367298", "longitude": "-72.124008", "altitude": "169"}
        ,{"id": "rpcme", "team": "t28", "name": "Housatonic River Brewing", "municipality": "New Milford", "region": "Connecticut", "latitude": "41.577769", "longitude": "-73.420525", "altitude": "207"}
	,{"id": "royaliz", "team": "t14", "name": "Spacecat Brewing Company", "municipality": "Norwalk", "reigon": "Connecticut", "latitude": "41.091069", "longitude": "-73.420904", "altitude": "15"}
        ,{"id": "adavachi", "team": "t32", "name": "First State Brewing Company", "municipality": "Middletown", "region": "Delaware", "latitude": "39.438060", "longitude": "-75.748670", "altitude": "72"}
        ,{"id": "minibray", "team": "t24", "name": "Dogfish Head Craft Brewery", "municipality": "Milton", "region": "Delaware", "latitude": "38.772850", "longitude": "-75.312000", "altitude": "1"}
        ,{"id": "ahuss12", "team": "t13", "name": "Wilmington Brew Works", "municipality": "New Castle", "region": "Delaware", "latitude": "39.766336", "longitude": "-75.537175", "altitude": "143"}
        ,{"id": "truongak", "team": "t28", "name": "Dogfish Head Brewings & Eats", "municipality": "Rehoboth Beach", "region": "Delaware", "latitude": "38.715271", "longitude": "-75.087082", "altitude": "19"}
        ,{"id": "ver", "team": "t24", "name": "Strange Colt Brewery", "municipality": "Niceville", "region": "Florida", "latitude": "30.5150394", "longitude": "-86.4650573", "altitude": "51"}
        ,{"id": "filip", "team": "t23", "name": "Funky Buddha Brewery", "municipality": "Oakland Park", "region": "Florida", "latitude": "26.17431", "longitude": "-80.13125", "altitude": "3"}
	,{"id": "cjsahlen", "team": "t13", "name": "Ivanhoe Park Brewing Company", "municipality": "Orlando", "region": "Florida", "latitude": "28.563130", "longitude": "-81.372336", "altitude": "97"}
        ,{"id": "colekump", "team": "t32", "name": "Bog Brewing Company", "municipality": "Saint Augustine", "region": "Florida", "latitude": "29.891000270478", "longitude": "-81.32708148650", "altitude": "0"}
        ,{"id": "rossp", "team": "t30", "name": "Palm City Brewing Company", "municipality": "San Carlos Park", "region": "Florida", "latitude": "26.477904", "longitude": "-81.826947", "altitude": "6"}
        ,{"id": "Tsyber", "team": "t31", "name": "Playalinda Brewing Company", "municipality": "Titusville", "region": "Florida", "latitude": "28.54678", "longitude": "-80.79611", "altitude": "33"}
	,{"id": "delta27", "team": "t21", "name": "Akademia Brewing Company", "municipality": "Athens", "region": "Georgia", "latitude": "33.942256", "longitude": "-83.470407", "altitude": "777"}
        ,{"id": "timand", "team": "t30", "name": "Grumpy Old Men Brewing", "municipality": "Blue Ridge", "region": "Georgia", "latitude": "34.85828", "longitude": "-84.32983", "altitude": "1719"}
        ,{"id": "eldridg", "team": "t20", "name": "Gate City Brewing Company", "municipality": "Roswell", "region": "Georgia", "latitude": "34.02381", "longitude": "-84.36211", "altitude": "1062"}
        ,{"id": "qmeisman", "team": "t33", "name": "Bent Tree Brewing", "municipality": "Athol", "region": "Idaho", "latitude": "47.95255", "longitude": "-116.75598", "altitude": "2392"}
	,{"id": "jmr0424", "team": "t12", "name": "Highlands Hollow Brewhouse", "municipality": "Boise", "region": "Idaho", "latitude": "43.642222", "longitude": "-116.208611", "altitude": "2730"}
	,{"id": "krisbarn", "team": "t14", "name": "Laughing Dog Brewery", "municipality": "Ponderay", "region": "Idaho", "latitude": "48.3045912", "longitude": "-116.5417106", "altitude": "2131"}
        ,{"id": "hridayab", "team": "t28", "name": "Revolution Brewing", "municipality": "Chicago", "region": "Illinois", "latitude": "41.942151", "longitude": "-87.708530", "altitude": "613"}
        ,{"id": "scott20", "team": "t33", "name": "Mickey Finn's Brewery", "municipality": "Libertyville", "region": "Illinois", "latitude": "42.28614", "longitude": "-87.95428", "altitude": "699"}
        ,{"id": "mikemc24", "team": "t16", "name": "Tighthead Brewing Company", "municipality": "Mundelein", "region": "Illinois", "latitude": "42.268135", "longitude": "-87.999132", "altitude": "755"}
        ,{"id": "dschmuck", "team": "t29", "name": "Chilly Water Brewing Company", "municipality": "Indiana", "region": "Indianapolis", "latitude": "39.757190", "longitude": "-86.145720", "altitude": "223"}
        ,{"id": "toreskey", "team": "t37", "name": "Five Cities Brewing - Taproom", "municipality": "Bettendorf", "region": "Iowa", "latitude": "41.573856", "longitude": "-90.500802", "altitude": "713"}
        ,{"id": "martel", "team": "t25", "name": "Third Base Brewery", "municipality": "Cedar Rapids", "region": "Iowa", "latitude": "42.035064", "longitude": "-91.639801", "altitude": "832"}
        ,{"id": "tyseef", "team": "t37", "name": "Toppling Goliath Brewing Co", "municipality": "Decorah", "region": "Iowa", "latitude": "43.274154", "longitude": "-91.726068", "altitude": "1185"}
        ,{"id": "goron117", "team": "t25", "name": "Not Lost Brewing", "municipality": "Ottawa", "region": "Kansas", "latitude": "38.61484", "longitude": "-95.26843", "altitude": "925"}
        ,{"id": "dpoppa4", "team": "t38", "name": "Rock House Brewing", "municipality": "Lexington", "region": "Kentucky", "latitude": "38.054795", "longitude": "-84.480299", "altitude": "988"}
	,{"id": "cjbeall", "team": "t26", "name": "Crescent City Brewhouse", "municipality": "New Orleans", "region": "Louisiana", "latitude": "29.95616", "longitude": "-90.06422", "altitude": "0"}
	,{"id": "natebenn", "team": "t36", "name": "Blaze Brewing Company", "municipality": "Biddeford", "region": "Maine", "latitude": "43.495761", "longitude": "-70.453219", "altitude": "55"}
	,{"id": "omarwrs", "team": "t36", "name": "Bateau Brewing", "municipality": "Gardiner", "region": "Maine", "latitude": "44.22903", "longitude": "-69.77050", "altitude": "23"}
        ,{"id": "ingjacob", "team": "t28", "name": "Grateful Grain Brewing Co.", "municipality": "Monmouth", "region": "Maine", "latitude": "44.1817", "longitude": "-69.9917", "altitude": "67"}
	,{"id": "mpoppa1", "team": "t12", "name": "Attaboy Beer", "municipality": "Frederick", "region": "Maryland", "latitude": "39.412206", "longitude": "-77.403375", "altitude": "286"}
        ,{"id": "boolinn", "team": "t15", "name": "Falling Branch Brewery", "municipality": "Harford", "region": "Maryland", "latitude": "39.65223592", "longitude": "-76.35622652", "altitude": "803"}
	,{"id": "nfotis", "team": "t36", "name": "Navigation Brewing Co.", "municipality": "Lowell", "region": "Massachusetts", "latitude": "42.639961", "longitude": "-71.319359", "altitude": "89"}
	,{"id": "jthiggin", "team": "t29", "name": "Lord Hobo Brewing Company", "municipality": "Woburn", "region": "Massachusetts", "latitude": "42.476025", "longitude": "-71.128931", "altitude": "100"}
	,{"id": "drakeem", "team": "t14", "name": "Greater Good Imperial Brewing Company", "municipality": "Worcester", "region": "Massachusetts", "latitude": "42.287523", "longitude": "-71.8011856", "altitude": "528"}
	,{"id": "alifayed", "team": "t30", "name": "Eastern Market Brewing Co", "municipality": "Detroit", "region": "Michigan", "latitude": "42.3475859", "longitude": "-83.0387648", "altitude": "1.19"}
        ,{"id": "peasleed", "team": "t24", "name": "New Holland Brewing", "municipality": "Holland", "region": "Michigan", "latitude": "42.79011513601594", "longitude": "-86.10421522854294", "altitude": "622"}
        ,{"id": "frogman3", "team": "t34", "name": "Hoops Brewing Company", "municipality": "Duluth", "region": "Minnesota", "latitude": "46.7835384", "longitude": "-92.0963248", "altitude": "627"}
        ,{"id": "mattm936", "team": "t39", "name": "Boathouse Brewpub", "municipality": "Ely", "region": "Minnesota", "latitude": "45.9032", "longitude": "-91.8671", "altitude": "1434"}
        ,{"id": "spencebl", "team": "t00", "name": "Bauhaus Brewery", "municipality": "Minneapolis", "region": "Minnesota", "latitude": "45.0009", "longitude": "-93.2465", "altitude": "849"}
        ,{"id": "pie2003", "team": "t12", "name": "Wicked Wort Brewing Company", "municipality": "Robbinsdale", "region": "Minnesota", "latitude": "45.03113", "longitude": "-93.33923", "altitude": "879"}
        ,{"id": "pbmcg", "team": "t38", "name": "Public House Brewing Company", "municipality": "St. James", "region": "Missouri", "latitude": "38.00981565", "longitude": "-91.60853213", "altitude": "1078"}
        ,{"id": "ivans", "team": "t20", "name": "Bozeman Brewing Company", "municipality": "Bozeman", "region": "Montana", "latitude": "45.684560", "longitude": "-111.023844", "altitude": "4807"}
        ,{"id": "kedrick", "team": "t13", "name": "Blackfoot River Brewing Co", "municipality": "Helena", "region": "Montana", "latitude": "46.586254", "longitude": "-112.041829", "altitude": "4101"}
        ,{"id": "harvin", "team": "t13", "name": "Philipsburg Brewing Company", "municipality": "Philipsburg", "region": "Montana", "latitude": "46.332452", "longitude": "-113.294433", "altitude": "5241"}
	,{"id": "dbh2001", "team": "t15", "name": "Steeple Brewing Company", "municipality": "Hastings", "region": "Nebraska", "latitude": "40.3503", "longitude": "-98.2324", "altitude": "1764"}
        ,{"id": "jacopo", "team": "t19", "name": "Pint Nine Brewing Company", "municipality": "La Vista", "region": "Nebraska", "latitude": "41.1718584", "longitude": "-96.0759148", "altitude": "1096"}
        ,{"id": "dmcyde", "team": "t16", "name": "Boiler Brewing Company", "municipality": "Lincoln", "region": "Nebraska", "latitude": "40.814185", "longitude": "-96.707404", "altitude": "1201"}
        ,{"id": "emsims", "team": "t31", "name": "Tenaya Creek Brewery", "municipality": "Las Vegas", "region": "Nevada", "latitude": "36.176885086283605", "longitude": "-115.15354010598669", "altitude": "2001"}
        ,{"id": "bmattes", "team": "t39", "name": "Great Basin Brewing Company", "municipality": "Sparks", "region": "Nevada", "latitude": "39.535102", "longitude": "-119.754130", "altitude": "4438"}
	,{"id": "malinj", "team": "t18", "name": "603 Brewery and Beer Hall", "municipality": "Londonderry", "region": "New Hampshire", "latitude": "42.8725", "longitude": "-71.346944", "altitude": "420"}
	,{"id": "gabimcd", "team": "t33", "name": "Throwback Brewery", "municipality": "North Hampton", "region": "New Hampshire", "latitude": "42.98105991", "longitude": "-70.83453345", "altitude": "82"}	    
        ,{"id": "ahanna1", "team": "t29", "name": "Santa Fe Brewing Company Albuquerque Taproom", "municipality": "Albuquerque", "region": "New Mexico", "latitude": "35.106116", "longitude": "-106.603500", "altitude": "4967"}
        ,{"id": "glemicnt", "team": "t39", "name": "Lauter Haus Brewing Company", "municipality": "Farmington", "region": "New Mexico", "latitude": "36.749712", "longitude": "-108.181799", "altitude": "5306"}
        ,{"id": "jaispuro", "team": "t23", "name": "Hidden Mountain Brewing Company", "municipality": "Santa Fe", "region": "New Mexico", "latitude": "35.64139381165665", "longitude": "-106.01550313953051", "altitude": "6578"}
	,{"id": "ejpitera", "team": "t26", "name": "Fort Orange Brewing", "municipality": "Albany", "region": "New York", "latitude": "42.6669444444", "longitude": "-73.7430555556", "altitude": "148"}
        ,{"id": "jacob3", "team": "t16", "name": "Next Chapter Brewpub", "municipality": "Auburn", "region": "New York", "latitude": "42.931242", "longitude": "-76.566551", "altitude": "715"}
        ,{"id": "nael", "team": "t15", "name": "Upstate Brewing Company", "municipality": "Big Flats", "region": "New York", "latitude": "42.12526635", "longitude": "-76.87558073", "altitude": "871"}
        ,{"id": "jasoncur", "team": "t16", "name": "Montauk Brewing Company", "municipality": "Montauk", "region": "New York", "latitude": "41.03669", "longitude": "-71.94404", "altitude": "43"}
        ,{"id": "mdeblois", "team": "t29", "name": "Marble Hill Inn", "municipality": "Onieda", "region": "New York", "latitude": "43.060014", "longitude": "-75.591062", "altitude": "630"}
        ,{"id": "chris310", "team": "t35", "name": "Matt Brewing Company", "municipality": "Utica", "region": "New York", "latitude": "43.10453203652292", "longitude": "-75.24554683167086", "altitude": "436"}
	,{"id": "cross35", "team": "t34", "name": "Lost Province Brewing Co", "municipality": "Boone", "region": "North Carolina", "latitude": "36.21942", "longitude": "-81.68354", "altitude": "3248"}
        ,{"id": "ian1363", "team": "t15", "name": "Fullsteam Brewery", "municipality": "Durham", "region": "North Carolina", "latitude": "36.0030608", "longitude": "-78.899390", "altitude": "404"}
        ,{"id": "blakebri", "team": "t19", "name": "Drekker Brewing Company", "municipality": "Fargo", "region": "North Dakota", "latitude": "46.8761931", "longitude": "-96.8079431", "altitude": "917"}
        ,{"id": "tauren", "team": "t39", "name": "Brockopp Brewing", "municipality": "Valley City", "region": "North Dakota", "latitude": "46.923086", "longitude": "-98.002718", "altitude": "1222"}
        ,{"id": "olivern", "team": "t22", "name": "Southern Ohio Brewing", "municipality": "Dayton", "region": "Ohio", "latitude": "39.71244", "longitude": "-82.02794", "altitude": "843"}
	,{"id": "jpoppa", "team": "t36", "name": "Jilbert Winery & Brewery", "municipality": "Valley City", "region": "Ohio", "latitude": "41.233977", "longitude": "-81.922900", "altitude": "852"}
        ,{"id": "ballard2", "team": "t24", "name": "Canadian River Brewing Company", "municipality": "Chickasha", "region": "Oklahoma", "latitude": "35.0509725", "longitude": "-97.9361762", "altitude": "1093"}
        ,{"id": "maxinego", "team": "t14", "name": "Stonecloud Brewing Company", "municipality": "Oklahoma City", "region": "Oklahoma", "latitude": "35.468613", "longitude": "-97.529142", "altitude": "1198"}
        ,{"id": "kade5", "team": "t31", "name": "North Seven Brewing Co", "municipality": "Baker City", "region": "Oregon", "latitude": "44.7769595", "longitude": "-117.8313185", "altitude": "3442"}
        ,{"id": "bdunahu", "team": "t27", "name": "Crux Fermentation Project", "municipality": "Bend", "region": "Oregon", "latitude": "44.046726", "longitude": "-121.322088", "altitude": "3625"}
	,{"id": "awbrown0", "team": "t38", "name": "Newport Brewing Company", "municipality": "Newport", "region": "Oregon", "latitude": "44.63226", "longitude": "-124.05971", "altitude": "83"}   
        ,{"id": "ewc97712", "team": "t16", "name": "Great Notion Brewing - NW28th", "municipality": "Portland", "region": "Oregon", "latitude": "45.539692", "longitude": "-122.708942", "altitude": "39"}
	,{"id": "elisong", "team": "t36", "name": "Brewerie at Union Station, The", "municipality": "Erie", "region": "Pennsylvania", "latitude": "42.0718", "longitude": "-80.0449", "altitude": "683"}
        ,{"id": "pavanomp", "team": "t38", "name": "Juniata Brewing Company", "municipality": "Huntingdon", "region": "Pennsylvania", "latitude": "40.48467", "longitude": "-78.01139", "altitude": "643"}  
	,{"id": "sofia02c", "team": "t20", "name": "Sworn Brewing Company", "municipality": "Mechanicsburg", "region": "Pennsylvania", "latitude": "40.21984", "longitude": "-76.98335", "altitude": "446"}
        ,{"id": "zakider", "team": "t39", "name": "Buttonwoods Brewery", "municipality": "Cranston", "region": "Rhode Island", "latitude": "41.773183", "longitude": "-71.426517", "altitude": "45.3"} 
        ,{"id": "sharling", "team": "t37", "name": "Side Hustle Brewing Company", "municipality": "Hilton Head", "region": "South Carolina", "latitude": "32.14951133390316", "longitude": "-80.75525161535226", "altitude": "10"}
	,{"id": "cookls", "team": "t35", "name": "Angry Fish Brewing Co.", "municipality": "Lexington", "region": "South Carolina", "latitude": "33.980808", "longitude": "-81.276054", "altitude": "397"}    
	,{"id": "kmjager", "team": "t35", "name": "Sick-N-Twisted Brewery", "municipality": "Hill City", "region": "South Dakota", "latitude": "43.947233", "longitude": "-103.528625", "altitude": "5013"}
	,{"id": "clayroby", "team": "t26", "name": "Firehouse Brewing Company", "municipality": "Rapid City", "region": "South Dakota", "latitude": "44.085690", "longitude": "-103.226891", "altitude": "7242"}
	,{"id": "jecircen", "team": "t15", "name": "Yazoo Brewing Company", "municipality": "Madison", "region": "Tennessee", "latitude": "36.27580", "longitude": "-86.68655", "altitude": "505"}
	,{"id": "jacobrp", "team": "t24", "name": "Tennessee Brew Works", "municipality": "Nashville", "region": "Tennessee", "latitude": "36.15037", "longitude": "-86.77629", "altitude": "558"}
        ,{"id": "emmars", "team": "t35", "name": "Zilker Brewing Company and Taproom", "municipality": "Austin", "region": "Texas", "latitude": "30.262172", "longitude": "-97.724596", "altitude": "489"}
        ,{"id": "anjoke", "team": "t11", "name": "Old Texas Brewing Co.", "municipality": "Burleson", "region": "Texas", "latitude": "32.61330260643355", "longitude": "-97.37754962170001", "altitude": "709"}
        ,{"id": "rocarrol", "team": "t38", "name": "DeadBeach Brewery", "municipality": "El Paso", "region": "Texas", "latitude": "31.755540", "longitude": "-106.492700", "altitude": "3711"}
	,{"id": "lnlarson", "team": "t20", "name": "Hop and Sting Brewing Company", "municipality": "Grapevine", "region": "Texas", "latitude": "32.938021", "longitude": "-97.076461", "altitude": "630"}
	,{"id": "shliu", "team": "t25", "name": "Laredo Brewing Company", "municipality": "Laredo", "region": "Texas", "latitude": "27.585147284583755", "longitude": "-99.44553753865029", "altitude": "450"}
        ,{"id": "riggsx2", "team": "t27", "name": "5x5 Brewing Company", "municipality": "Mission", "region": "Texas", "latitude": "26.210941", "longitude": "-98.310098", "altitude": "136"}
	,{"id": "tamo", "team": "t26", "name": "Ranger Creek Brewing & Distilling", "municipality": "San Antonio", "region": "Texas", "latitude": "29.5291666667", "longitude": "-98.3969444444", "altitude": "751"}
        ,{"id": "cgramey", "team": "t22", "name": "Cedar Creek Brewery", "municipality": "Seven Points", "region": "Texas", "latitude": "32.32445", "longitude": "-96.20741", "altitude": "384"}
	,{"id": "wadem", "team": "t18", "name": "Park City Brewing", "municipality": "Park City", "region": "Utah", "latitude": "40.723959", "longitude": "-111.540813", "altitude": "7000"}
	,{"id": "Janette", "team": "t18", "name": "Kiitos", "municipality": "Salt Lake City", "region": "Utah", "latitude": "40.7546025", "longitude": "-111.9085529", "altitude": "4265"}
    	,{"id": "elleryno", "team": "t18", "name": "Two Heroes Brewery", "municipality": "Grand Isle", "region": "Vermont", "latitude": "44.645855272726", "longitude": "-73.300912934519", "altitude": "95"}
        ,{"id": "coreydc", "team": "t37", "name": "Alchemist Cannery", "municipality": "Waterbury", "region": "Vermont", "latitude": "44.350492811555114", "longitude": "-72.7438521", "altitude": "427"}
        ,{"id": "ethanju", "team": "t32", "name": "The Farm Brewery at Broad Run", "municipality": "Broad Run", "region": "Virginia", "latitude": "38.81928", "longitude": "-77.66890", "altitude": "387"}
	,{"id": "sethhyde", "team": "t34", "name": "Colonial Beach Brewing", "municipality": "Colonial Beach", "region": "Virginia", "latitude": "38.2519", "longitude": "-76.9632", "altitude": "9.8"}
	,{"id": "dineshg", "team": "t33", "name": "The Virginia Beer Company", "municipality": "Williamsburg", "region": "Virginia", "latitude": "37.27199", "longitude": "-76.6898", "altitude": "82"}
	,{"id": "jennifar", "team": "t20", "name": "Iron Horse Brewery", "municipality": "Ellensburg", "region": "Washington", "latitude": "47.000695", "longitude": "-120.520180", "altitude": "1589"}
        ,{"id": "Absoz", "team": "t23", "name": "North Sound Brewing Co.", "municipality": "Mount Vernon", "region": "Washington", "latitude": "48.43175", "longitude": "-122.37015", "altitude": "48"}
        ,{"id": "norwick", "team": "t12", "name": "Headless Mumby Brewing", "municipality": "Olympia", "region": "Washington", "latitude": "47.04499", "longitude": "-122.90534", "altitude": "15"}
        ,{"id": "bachrock", "team": "t11", "name": "Port Townsend Brewing Company", "municipality": "Port Townsend", "region": "Washington", "latitude": "48.11", "longitude": "-122.78", "altitude": "10"}
        ,{"id": "abby5655", "team": "t14", "name": "The Pike Brewing Company", "municipality": "Seattle", "region": "Washington", "latitude": "47.60833", "longitude": "-122.33971", "altitude": "167"}
        ,{"id": "netsirt", "team": "t34", "name": "Sig Brewing Company", "municipality": "Tacoma", "region": "Washington", "latitude": "47.2372446", "longitude": "-122.4413657", "altitude": "65"}
        ,{"id": "Jstaut53", "team": "t30", "name": "Young Blood Beer Company", "municipality": "Madison", "region": "Wisconsin", "latitude": "43.075778", "longitude": "-89.381006", "altitude": "912"}
        ,{"id": "alexr11", "team": "t11", "name": "Minocqua Brewing Company", "municipality": "Minocqua", "region": "Wisconsin", "latitude": "45.87125", "longitude": "-89.71154", "altitude": "1607"}
        ,{"id": "evelynn", "team": "t35", "name": "Atypical Brewery & Barrelworks", "municipality": "Minot", "region": "Wisconsin", "latitude": "44.65944", "longitude": "-90.179167", "altitude": "1555"}
        ,{"id": "erikrc", "team": "t27", "name": "New Glarus Brewing Company", "municipality": "New Glarus", "region": "Wisconsin", "latitude": "42.79449", "longitude": "-89.63001", "altitude": "951"}
	,{"id": "oli", "team": "t35", "name": "Plymouth Brewing Company", "municipality": "Plymouth", "region": "Wisconsin", "latitude": "43.7477023", "longitude": "-87.9766677", "altitude": "835"}
        ,{"id": "ryanc70", "team": "t27", "name": "3 Sheeps Brewing Company", "municipality": "Sheboygan", "region": "Wisconsin", "latitude": "43.773276", "longitude": "-87.730484", "altitude": "669"}
	,{"id": "ally426", "team": "t18", "name": "Accomplice Beer Company", "municipality": "Cheyenne", "region": "Wyoming", "latitude": "41.0759", "longitude": "-104.4845", "altitude": "6056"}
        ,{"id": "birch1", "team": "t29", "name": "The Library Sports Grille & Brewery", "municipality": "Laramie", "region": "Wyoming", "latitude": "41.309250", "longitude": "-105.594990", "altitude": "7165"}
        ,{"id": "rpcme", "team": "t28", "name": "Housatonic River Brewing", "municipality": "New Milford", "region": "Connecticut", "latitude": "41.577769", "longitude": "-73.420525", "altitude": "207"}   
		,{"id": "jacopo", "team": "t19", "name": "Malto Brewery", "municipality": "Tirana", "country": "Albania", "latitude": "41.321429", "longitude": "19.794341", "altitude": "360"}
        ,{"id": "olivern", "team": "t22", "name": "Cervesa Boris Craft Beer ANDORRA", "municipality": "La Cortinada", "country": "Andorra", "latitude": "42.57691", "longitude": "1.52019", "altitude": "4379"}
        ,{"id": "maxinego", "team": "t14", "name": "Cerbab Cabinda", "municipality": "Cabinda", "country": "Angola", "latitude": "11.027", "longitude": "17.87", "altitude": "93"}
        ,{"id": "jennifar", "team": "t20", "name": "2SIX8 Craft Brewery", "municipality": "Falmouth", "country": "Antigua & Barbuda", "latitude": "17.023054", "longitude": "-61.768143", "altitude": "10" }
        ,{"id": "cribbs", "team": "t21", "name": "Strange Brewing", "municipality": "Buenos Aires", "country": "Argentina", "latitude": "-34.57944683625527", "longitude": "-58.45129420287384", "altitude": "78"}
        ,{"id": "ally426", "team": "t18", "name": "Gyumri Beer Brewery", "municipality": "Gyumri", "country": "Armenia", "latitude": "40.4524", "longitude": "43.5000", "altitude": "4990"}
        ,{"id": "glemicnt", "team": "t39", "name": "Balashi", "municipality": "Oranjestad", "country": "Aruba", "latitude": "12.481012", "longitude": "-69.981666", "altitude": "13"}
        ,{"id": "birch1", "team": "t29", "name": "Stone & Wood Brewery Byron Bay", "municipality": "Byron Bay", "country": "Australia", "latitude": "-28.637131", "longitude": "153.580780", "altitude": "10"}
        ,{"id": "cgramey", "team": "t22", "name": "Stiegl Brewery", "municipality": "Salzburg", "country": "Austria", "latitude": "47.83505", "longitude": "12.99378", "altitude": "1391"}
        ,{"id": "dbh2001", "team": "t15", "name": "Carlsberg Azerbijan", "municipality": "Xirdalan", "country": "Azerbijan", "latitude": "40.22844", "longitude": "49.4511", "altitude": "23"}
        ,{"id": "ballard2", "team": "t24", "name": "Bracongo", "municipality": "Kingabwa", "country": "Democratic Republic of the Congo", "latitude": "-4.33223", "longitude": "15.34188", "altitude": "918"}
        ,{"id": "krisbarn", "team": "t14", "name": "Andes Brewing Co.", "municipality": "Quito", "country": "Ecuador", "latitude": "-0.201779", "longitude": "-78.427007", "altitude": "7707"}
        ,{"id": "royaliz", "team": "t14", "name": "Efes Kazakhstan Careers", "municipality": "Almaty", "country": "Kazakhstan", "latitude": "43.260380", "longitude": "76.9488675", "altitude": "2609"}
        ,{"id": "drakeem", "team": "t14", "name": "Genys Brewing Company", "municipality": "Kaunas", "country": "Lithuania", "latitude": "54.864519", "longitude": "23.948370", "altitude": "187"}
        ,{"id": "abby5655", "team": "t14", "name": "Nipa Brew Taproom and Brewhouse", "municipality": "Manila", "country": "Philippines", "latitude": "14.56585", "longitude": "121.01312", "altitude": "16"}
        ,{"id": "bachrock", "team": "t11", "name": "The Bahamian Brewery", "municipality": "Freeport", "country": "Bahamas", "latitude": "26.523889", "longitude": "-78.738611", "altitude": "13"}
        ,{"id": "zakider", "team": "t39", "name": "C45 Artisan Brewery", "municipality": "Seef", "country": "Bahrain", "latitude": "26.233144", "longitude": "50.540373", "altitude": "213"}
        ,{"id": "arapport", "team": "t22", "name": "The Beer Of Barbados", "municipality": "Bridgetown", "country": "Barbados", "latitude": "13.10755135980022", "longitude": "-59.60579251557373", "altitude": "49"}
        ,{"id": "qmeisman", "team": "t33", "name": "Mad Frog Brewery", "municipality": "Minsk", "country": "Belarus", "latitude": "53.86019", "longitude": "27.68603", "altitude": "920"}
        ,{"id": "davematt", "team": "t00", "name": "Delirium Cafe", "municipality": "Bruxelles", "country": "Belgium", "latitude": "50.848462", "longitude": "4.353891", "altitude": "277"}
        ,{"id": "dmorigea", "team": "t28", "name": "Belize Brewing Company", "municipality": "Ladyville", "country": "Belize", "latitude": "17.5435062", "longitude": "-88.3006211", "altitude": "29"}
        ,{"id": "tamo", "team": "t26", "name": "Sabores Bolivianos Alemanes S.R.L.", "municipality": "Santa Cruz de la Ciera", "country": "Bolivia", "latitude": "17.54", "longitude": "-63.131", "altitude": "1132"}
        ,{"id": "rossp", "team": "t30", "name": "Sarajevo Brewery", "municipality": "Sarajevo", "country": "Bosnia and Herzegovina", "latitude": "43.855873", "longitude": "18.433368", "altitude": "1833"}
        ,{"id": "evanloy", "team": "t26", "name": "Big Sip Co", "municipality": "Gaborone", "country": "Botswana", "latitude": "-24.62196", "longitude": "25.91674", "altitude": "3291"}
        ,{"id": "ejpitera", "team": "t26", "name": "Dama Bier Brewery", "municipality": "Piracicaba", "country": "Brazil", "latitude": "-22.7388888889", "longitude": "-47.63", "altitude": "1772"}
        ,{"id": "peasleed", "team": "t24", "name": "Rhombus Brewery & Restaurant", "municipality": "Pazardzhik", "country": "Bulgaria", "latitude": "42.2141949", "longitude": "24.3297009", "altitude": "697"}
        ,{"id": "oli", "team": "t35", "name": "Braruda SA", "municipality": "Bujumbura", "country": "Burundi", "latitude": "-3.3711365", "longitude": "29.3496553", "altitude": "2564"}
        ,{"id": "truongak", "team": "t28", "name": "The HEINEKEN Company, Cambodia Brewery Limited", "municipality": "Phnom Penh", "country": "Cambodia", "latitude": "11.51942", "longitude": "104.99405", "altitude": "43"}
        ,{"id": "rpcme", "team": "t28", "name": "Left Field Brewery", "municipality": "Toronto", "country": "Canada", "latitude": "43.674241", "longitude": "-79.330451", "altitude": "310"}
        ,{"id": "scott20", "team": "t33", "name": "Cayman Islands Brewery Ltd", "region": "Patricks Island", "country": "Cayman Islands", "latitude": "19.27758", "longitude": "-81.33538", "altitude": "13"}
        ,{"id": "ahanna1", "team": "t29", "name": "La Brasserie", "municipality": "Bangui", "country": "Central African Republic", "latitude": "4.360523", "longitude": "18.582144", "altitude": "1211"}
        ,{"id": "kypes", "team": "t27", "name": "Brasseries du Tchad", "municipality": "N'Djamena", "country": "Chad", "latitude": "13.36483", "longitude": "14.07662", "altitude": "978"}
        ,{"id": "Tsyber", "team": "t31", "name": "Cerveceria SpoH", "municipality": "Santiago", "country": "Chile", "latitude": "-33.46558", "longitude": "-70.65151", "altitude": "1765"}
        ,{"id": "anjoke", "team": "t11", "name": "Peko Brewing Co.", "municipality": "Shenzhen", "country": "China", "latitude": "22.54780809471316", "longitude": "113.96863025101068", "altitude": "45"}
        ,{"id": "jmr0424", "team": "t12", "name": "Kingway Brewery", "municipality": "XiAn", "country": "China", "latitude": "34.3583333", "longitude": "108.935278", "altitude": "1329"}
        ,{"id": "jaispuro", "team": "t23", "name": "Colombia Craft Brewing Company", "municipality": "Medellín", "country": "Colombia", "latitude": "6.222659221918763", "longitude": "-75.56848888208476", "altitude": "5138"}
        ,{"id": "emmars", "team": "t35", "name": "Monteverde Brewing Company", "municipality": "Monteverde", "country": "Costa Rica", "latitude": "10.325033", "longitude": "-84.830204", "altitude": "4600"}
        ,{"id": "timand", "team": "t30", "name": "Nova Runda Brewery", "municipality": "Zabok", "country": "Croatia", "latitude": "46.01701", "longitude": "15.89113", "altitude": "466"}
        ,{"id": "pavanomp", "team": "t38", "name": "Buccaneer Brewery", "municipality": "Holguín", "country": "Cuba", "latitude": "20.8425", "longitude": "-75.7515", "altitude": "16"}
        ,{"id": "cjsahlen", "team": "t13", "name": "Pilsner Urquell Brewery", "municipality": "Pilsen", "country": "Czech Republic", "latitude": "49.743941", "longitude": "13.386243", "altitude": "1010"}
        ,{"id": "blakebri", "team": "t19", "name": "Flying Couch Brewery", "municipality": "Copenhagen", "country": "Denmark", "latitude": "55.7054702", "longitude": "12.5342572", "altitude": "44"}
        ,{"id": "mdeblois", "team": "t29", "name": "Walden Homebrew", "municipality": "Punta Cana", "country": "Dominican Republic", "latitude": "18.616800", "longitude": "-68.398602", "altitude": "63"}
        ,{"id": "nfotis", "team": "t36", "name": "Al Ahram Beverages Company", "municipality": "Ezbet Hasanen", "country": "Egypt", "latitude": "30.567920", "longitude": "31.684830", "altitude": "29"}
        ,{"id": "dschmuck", "team": "t29", "name": "Cadejo Brewing Company", "municipality": "San Salvador", "country": "El Salvador", "latitude": "13.693450", "longitude": "-89.235290", "altitude": "2372"}
        ,{"id": "wany0924", "team": "t19", "name": "Richmond Brewing Company", "municipality": "Richmond", "country": "England", "latitude": "54.402890", "longitude": "1.729251", "altitude": "332"}
        ,{"id": "Absoz", "team": "t23", "name": "Beer House", "municipality": "Tallinn", "country": "Estonia", "latitude": "59.44038", "longitude": "24.74299", "altitude": "9"}
        ,{"id": "nael", "team": "t15", "name": "St George Brewery", "municipality": "Addis Ababa", "country": "Ethiopia", "latitude": "9.017711614697948", "longitude": "38.74496605562622", "altitude": "7726"}
        ,{"id": "ver", "team": "t24", "name": "Ginger-Lei Fiji", "municipality": "Nadi", "country": "Fiji", "latitude": "-17.77652812", "longitude": "177.43563758", "altitude": "42"}
        ,{"id": "jasoncur", "team": "t16", "name": "Fat Lizard Brewing Company", "municipality": "Espoo", "country": "Finland", "latitude": "60.18142", "longitude": "24.82942", "altitude": "72"}
        ,{"id": "kedrick", "team": "t13", "name": "The Brewers of Lorraine", "municipality": "Lorraine", "country": "France", "latitude": "48.906588", "longitude": "6.050400", "altitude": "595"}
        ,{"id": "awbrown0", "team": "t38", "name": "Brasserie Guyanaise", "municipality": "Matoury", "country": "French Guiana", "latitude": "4.79875", "longitude": "-52.33898", "altitude": "36"}
        ,{"id": "toreskey", "team": "t37", "name": "Schiffwirtschaft - Brauerei", "municipality": "Füssen", "country": "Germany", "latitude": "47.565403", "longitude": "10.700714", "altitude": "2661"}
        ,{"id": "rnuguru", "team": "t22", "name": "Accra Brewery Limited", "municipality": "Accra", "country": "Ghana", "latitude": "5.556490", "longitude": "-0.221140", "altitude": "43"}
        ,{"id": "cruzfm", "team": "t33", "name": "Noctua Brewery Athens", "municipality": "Athens", "country": "Greece", "latitude": "37.975950", "longitude": "23.710170", "altitude": "66"}
        ,{"id": "atlat", "team": "t17", "name": "Qajaq Brewery", "municipality": "Narsaq", "country": "Greenland", "latitude": "60.90787", "longitude": "-46.04951", "altitude": "3"}
        ,{"id": "evelynn", "team": "t35", "name": "The Guan Brewery Taphouse", "municipality": "Tamuning", "country": "Guam", "latitude": "3.5075", "longitude": "144.80028", "altitude": "10"}
        ,{"id": "ian1363", "team": "t15", "name": "Antigua Brewing Company", "municipality": "Antigua Guatemala", "country": "Guatemala", "latitude": "14.5584960", "longitude": "-90.734672", "altitude": "5029"}
        ,{"id": "alexr11", "team": "t11", "name": "Guerrilla Nanobrewery", "municipality": "Georgetown", "country": "Guyana", "latitude": "6.808780", "longitude": "-58.158630", "altitude": "15"}
        ,{"id": "mpoppa1", "team": "t12", "name": "Portau Brewery", "municipality": "Port-au-Prince", "country": "Haiti", "latitude": "18.595634", "longitude": "-72.281785", "altitude": "92"}
        ,{"id": "sofia02c", "team": "t20", "name": "Roatan Island Brewing Co.", "municipality": "Coxen Hole", "country": "Honduras", "latitude": "16.35975", "longitude": "-86.48468", "altitude": "220"}
        ,{"id": "motley3", "team": "t17", "name": "KEG Sörművház", "municipality": "Budapest", "country": "Hungary", "latitude": "47.4820845", "longitude": "19.052192", "altitude": "1729"}
        ,{"id": "emsims", "team": "t31", "name": "Lady Brewery", "municipality": "Reykjavík", "country": "Iceland", "latitude": "64.15785372550422", "longitude": "-21.941010332757088", "altitude": "128"}
        ,{"id": "dineshg", "team": "t33", "name": "Goa Brewing Company", "municipality": "Goa", "country": "India", "latitude": "15.54928", "longitude": "73.80713", "altitude": "3350"}
        ,{"id": "TristanT", "team": "t17", "name": "The Temple Bar", "municipality": "Dublin", "country": "Ireland", "latitude": "6.2675", "longitude": "53.3449", "altitude": "16"}
         ,{"id": "rollo", "team": "t32", "name": "Beer Stop", "municipality": "Tel Aviv", "country": "Israel", "latitude": "32.10438883307685", "longitude": "34.77329492803939", "altitude": "18"}
        ,{"id": "cdegen", "team": "t34", "name": "Brasseria della Fonte", "municipality": "Province of Siena", "country": "Italy", "latitude": "43.0939775", "longitude": "11.6510673", "altitude": "1056"}
        ,{"id": "aryanadv", "team": "t25", "name": "Clubhouse Brewery", "municipality": "Kingston", "country": "Jamaica", "latitude": "18.0451178", "longitude": "-76.7928299", "altitude": "489"}
        ,{"id": "ewc97712", "team": "t16", "name": "Riot Beer and Taproom", "municipality": "Tokyo", "country": "Japan", "latitude": "35.639612", "longitude": "139.610897", "altitude": "150"}
        ,{"id": "riggsx2", "team": "t27", "name": "Biera Amman", "municipality": "Amman", "country": "Jordan", "latitude": "31.957989", "longitude": "35.863624", "altitude": "3105"}
        ,{"id": "eldridg", "team": "t20", "name": "Baza Brewery", "municipality": "Almaty", "country": "Kazakhstan", "latitude": "43.36605", "longitude": "76.91002", "altitude": "2244"}
        ,{"id": "delta27", "team": "t21", "name": "Save The Ales", "municipality": "Bishkek", "country": "Kyrgyzstan", "latitude": "42.870490", "longitude": "74.609606", "altitude": "2513"}
        ,{"id": "cookls", "team": "t35", "name": "Chokdee Cafe & Belgian Beer Bar", "municipality": "Vientiane", "country": "Laos", "latitude": "17.963095", "longitude": "102.605835", "altitude": "570"}
        ,{"id": "ingjacob", "team": "t28", "name": "Labietis", "municipality": "Riga", "country": "Latvia", "latitude": "56.9655", "longitude": "24.13038", "altitude": "9"}
        ,{"id": "boolinn", "team": "t15", "name": "Colonel Brewery and Distillery", "municipality": "Batroun", "country": "Lebanon", "latitude": "34.250228", "longitude": "35.658186", "altitude": "112"}
        ,{"id": "ahuss12", "team": "t13", "name": "The Liechtensteiner Brauhaus", "municipality": "Schaan", "country": "Liechtenstein", "latitude": "47.177342", "longitude": "9.516368", "altitude": "1469"}
        ,{"id": "hsteve", "team": "t12", "name": "Grand Brewing Luxembourg", "municipality": "Kirchberg", "country": "Luxembourg", "latitude": "49.6311338", "longitude": "6.1654383", "altitude": "1113"}
        ,{"id": "pbmcg", "team": "t38", "name": "Star Brewing", "municipality": "Antsirabe", "country": "Madagascar", "latitude": "19.86", "longitude": "47.02", "altitude": "4900"}
        ,{"id": "bli45", "team": "t21", "name": "Chibuku Lilongwe Brewery", "municipality": "Lilongwe", "country": "Malawi", "latitude": "-13.913578", "longitude": "33.788193", "altitude": "3654"}
        ,{"id": "Janette", "team": "t18", "name": "Carlsberg Brewery Malaysia Berhad", "municipality": "Selangor", "country": "Malaysia", "latitude": "3.0718238", "longitude": "101.5483689", "altitude": "315"}
        ,{"id": "minibray", "team": "t24", "name": "Lord Chambray Brewery", "region": "Xewkija", "country": "Malta", "latitude": "36.030733", "longitude": "14.254671", "altitude": "312"}
        ,{"id": "elisong", "team": "t36", "name": "Brasserie Lorraine", "municipality": "Le Lamentin", "country": "Martinique", "latitude": "14.3740", "longitude": "-61.0130", "altitude": "210"}
        ,{"id": "norwick", "team": "t12", "name": "Flying Dodo Brewing Company", "region": "Moka", "country": "Mauritius", "latitude": "-20.22386", "longitude": "57.49529", "altitude": "1056"}
        ,{"id": "gerardov", "team": "t19", "name": "NSR Brewery", "municipality": "Culiacan", "country": "Mexico", "latitude": "24.825919", "longitude": "-107.400671", "altitude": "233"}
        ,{"id": "alifayed", "team": "t30", "name": "LaBREWtory Brewing Company", "municipality": "Chişinău", "country": "Moldova", "latitude": "47.1455376", "longitude": "27.4312678", "altitude": "3424"}
        ,{"id": "humaid99", "team": "t17", "name": "Brasserie de Monaco Brewery", "municipality": "Monte Carlo", "country": "Monaco", "latitude": "43.7384", "longitude": "7.4246", "altitude": "539"}
        ,{"id": "kmjager", "team": "t35", "name": "Salm Brewery", "municipality": "Ulaanbaatar", "country": "Mongolia", "latitude": "47.925667", "longitude": "106.916195", "altitude": "4429"}
        ,{"id": "ryanc70", "team": "t27", "name": "Trebjesa Brewery", "municipality": "Niksic", "country": "Montenegro", "latitude": "42.780924", "longitude": "18.952709", "altitude": "2086"}
        ,{"id": "aaouaj", "team": "t11", "name": "Amazigh Brewing Company", "municipality": "Tétouan", "country": "Morocco", "latitude": "35.564487", "longitude": "-5.369752", "altitude": "95"}
        ,{"id": "driva", "team": "t11", "name": "2M factory", "municipality": "Maputo", "country": "Mozambique", "latitude": "-25.91936", "longitude": "32.54302", "altitude": "32"}
        ,{"id": "sereno", "team": "t32", "name": "Heineken Myanmar Brewery", "municipality": "Yangon", "country": "Myanmar", "latitude": "16.96871", "longitude": "96.15272", "altitude": "30"}
        ,{"id": "rocarroll84", "team": "t38", "name": "Gorkha Brewery", "municipality": "Kathmandu", "country": "Nepal", "latitude": "27.711948", "longitude": "85.322167", "altitude": "5645"}
        ,{"id": "omarwrs", "team": "t36", "name": "White Dog Brewery", "municipality": "Dordretch", "country": "Netherlands", "latitude": "51.78381", "longitude": "4.64010", "altitude": "12"}
        ,{"id": "coreydc", "team": "t37", "name": "Altitude Brewing", "municipality": "Queenstown", "country": "New Zealand", "latitude": "-45.01780903469083", "longitude": "168.71593577883854", "altitude": "1017"}
        ,{"id": "gabimcd", "team": "t33", "name": "Braniger", "municipality": "Niamey", "country": "Niger", "latitude": "13.4630639", "longitude": "2.1275108", "altitude": "630"}
        ,{"id": "jthiggin", "team": "t29", "name": "Nigerian Breweries", "municipality": "Ota", "country": "Nigeria", "latitude": "6.721248", "longitude": "3.223329", "altitude": "190"}
        ,{"id": "mattm936", "team": "t39", "name": "Taedonggang Beer Brewery", "municipality": "Pyongyang", "country": "North Korea", "latitude": "39.0738", "longitude": "125.8198", "altitude": "95"}
        ,{"id": "Dstreeb", "team": "t21", "name": "Graff Brygghus", "municipality": "Tromso", "country": "Norway", "latitude": "69.42", "longitude": "19.0053", "altitude": "75"}
        ,{"id": "jacobrp", "team": "t24", "name": "Le Petit Belge", "municipality": "Muscat", "country": "Oman", "latitude": "23.57259", "longitude": "58.32125", "altitude": "310"}
        ,{"id": "tauren", "team": "t39", "name": "Brewery Limca & Juices", "municipality": "Karachi City", "country": "Pakistan", "latitude": "24.946298", "longitude": "67.072297", "altitude": "103"}
        ,{"id": "bdunahu", "team": "t27", "name": "Palau Brewing Company", "municipality": "Koror", "country": "Palau", "latitude": "7.340141", "longitude": "134.458824", "altitude": "7"}
        ,{"id": "lnlarson", "team": "t20", "name": "Taybeh Brewing Company", "municipality": "Taybeh", "country": "Palestine", "latitude": "31.956535", "longitude": "35.297467", "altitude": "2,822"}
        ,{"id": "hridayab", "team": "t28", "name": "Casa Bruja Brewing Co.", "municipality": "Panama City", "country": "Panama", "latitude": "9.00916667", "longitude": "-79.47861111", "altitude": "16"}
        ,{"id": "wadem", "team": "t18", "name": "South Pacific Brewery", "municipality": "Port Morsby", "country": "Papua New Guinea", "latitude": "-9.450959", "longitude": "147.193873", "altitude": "115"}
        ,{"id": "jpoppa", "team": "t36", "name": "The Hop: Craft Beer House", "municipality": "Fernando de la Mora", "country": "Paraguay", "latitude": "-25.323063", "longitude": "-57.553489", "altitude": "477"}
        ,{"id": "filip", "team": "t23", "name": "Leżajsk Brewery", "municipality": "Stare Miasto", "country": "Poland", "latitude": "50.27623", "longitude": "22.42486", "altitude": "564"}
        ,{"id": "chris310", "team": "t35", "name": "Cerveceria del Valle Sagrado", "municipality": "Pachar", "country": "Peru", "latitude": "-13.271891246414617", "longitude": "-72.21669587541744", "altitude": "9262"}
        ,{"id": "tyseef", "team": "t37", "name": "Duque Brewpub", "municipality": "Lisboa", "country": "Portugal", "latitude": "38.713133", "longitude": "-9.142511", "altitude": "236"}
        ,{"id": "jacob3", "team": "t16", "name": "Wicked Barrel Brewery", "municipality": "Sat Neagra", "country": "Romania", "latitude": "46.880109", "longitude": "25.982176", "altitude": "1732"}
        ,{"id": "mikemc24", "team": "t16", "name": "Baltika Breweries", "municipality": "St. Petersburg", "country": "Russia", "latitude": "60.294685", "longitude": "30.283713", "altitude": "44"}
        ,{"id": "ivans", "team": "t20", "name": "Birrificio Artigianale Sammarinese", "municipality": "Falciano", "country": "San Marino", "latitude": "43.980875", "longitude": "12.502297", "altitude": "450"}
        ,{"id": "erikrc", "team": "t27", "name": "BrewDog", "municipality": "Ellon", "country": "Scotland", "latitude": "57.36963995058479", "longitude": "-2.050489546884534", "altitude": "111"}
        ,{"id": "natebenn", "team": "t36", "name": "Dogma Brewery & Tap Room", "municipality": "Belgrade", "country": "Serbia", "latitude": "44.788615", "longitude": "20.423170", "altitude": "282"}
        ,{"id": "johnh9", "team": "t25", "name": "Diageo Brewaries", "municipality": "Island of Mahé", "country": "Seychelles", "latitude": "-4.736751", "longitude": "55.52262", "altitude": "16"}
        ,{"id": "colekump", "team": "t32", "name": "Sierra Leone Brewwery", "municipality": "Freetown", "country": "Sierra Leone", "latitude": "8.442414640923216", "longitude": "-13.165045168518905", "altitude": "85"}
        ,{"id": "Jstaut53", "team": "t30", "name": "Little Island Brewing", "municipality": "Changi Village", "country": "Singapore", "latitude": "1.307041", "longitude": "103.857151", "altitude": "36"}
        ,{"id": "elleryno", "team": "t18", "name": "Pelikaan Brewery", "municipality": "Cole Bay", "country": "Sint Maarten", "latitude": "18.03934012512504", "longitude": "-63.08655107049238", "altitude": "11"}
        ,{"id": "frogman3", "team": "t34", "name": "Pivovar Shenk", "municipality": "Bratislava", "country": "Slovakia", "latitude": "48.144960", "longitude": "17.111263", "altitude": "454"}
        ,{"id": "tste", "team": "t23", "name": "Green Gold Brewing", "municipality": "Šempeter v Savinjski Dolini", "country": "Slovenia", "latitude": "46.265876", "longitude": "15.114977", "altitude": "889"}
        ,{"id": "kitten", "team": "t31", "name": "Clarens Brewery", "municipality": "Clarens", "country": "South Africa", "latitude": "-28.511863", "longitude": "28.422330", "altitude": "5964"}
        ,{"id": "netsirt", "team": "t34", "name": "Nomadic Brewing Company", "municipality": "Wansan-gu", "country": "South Korea", "latitude": "35.816434", "longitude": "127.143792", "altitude": "45"}
        ,{"id": "yuj", "team": "t22", "name": "Granada Beer Company", "municipality": "Granada", "country": "Spain", "latitude": "37.2273396", "longitude": "-3.6501703", "altitude": "2129"}
        ,{"id": "cross35", "team": "t34", "name": "Lion Brewery Ceylon", "municipality": "Kaduwela", "country": "Sri Lanka", "latitude": "6.95246", "longitude": "79.97928", "altitude": "43"}
        ,{"id": "jecircen", "team": "t15", "name": "Stockholm Brewing Company", "municipality": "Stockholm", "country": "Sweden", "latitude": "59.3470", "longitude": "18.12006", "altitude": "3"}
        ,{"id": "kade5", "team": "t31", "name": "Rugenbraeu Brewery", "municipality": "Matten bei Interlaken", "country": "Switzerland", "latitude": "46.67061", "longitude": "7.85506", "altitude": "1886"}
        ,{"id": "sethhyde", "team": "t34", "name": "Ugly Half Brewing", "municipality": "New Taipei City", "country": "Taiwan", "latitude": "25.034320", "longitude": "121.520700", "altitude": "33.8"}
        ,{"id": "clayroby", "team": "t26", "name": "Barsburg Brewery", "municipality": "Khujand", "country": "Tajikistan", "latitude": "40.312041", "longitude": "69.656875", "altitude": "984"}
        ,{"id": "olivern", "team": "t22", "name": "Cervesa Boris Craft Beer ANDORRA", "municipality": "La Cortinada", "country": "Andorra", "latitude": "42.57691", "longitude": "1.52019", "altitude": "4379"}
        ,{"id": "pie2003", "team": "t12", "name": "Maluti Mountain Brewery", "municipality": "Maseru", "country": "Lesotho", "latitude": "-29.816342152396814", "longitude": "27.232122146962823", "altitude": "5430"}
        ,{"id": "voleskyj", "team": "t13", "name": "Tanzania Breweries Limited", "municipality": "Mbeya", "country": "Tanzania", "latitude": "-8.934382660775263", "longitude": "33.40554638116736", "altitude": "5300"}
        ,{"id": "spencebl", "team": "t00", "name": "Cascade Brewery", "municipality": "South Hobart", "country": "Tasmania", "latitude": "-42.7709", "longitude": "147.3486", "altitude": "728"}
        ,{"id": "malinj", "team": "t18", "name": "Chitbeer", "municipality": "Ko Kret", "country": "Thailand", "latitude": "13.909167", "longitude": "100.490556", "altitude": "20"}
        ,{"id": "shliu", "team": "t25", "name": "Brasserie BB de Kara", "municipality": "Kara", "country": "Togo", "latitude": "27.538997402673104", "longitude": "99.48448946362194", "altitude": "197"}
        ,{"id": "adavachi", "team": "t32", "name": "Carib Brewery Ltd", "municipality": "St. Joseph", "country": "Trinidad and Tobago", "latitude": "10.639160", "longitude": "-61.281130", "altitude": "230"}
        ,{"id": "bmattes", "team": "t39", "name": "Torch Brewery", "municipality": "Istanbul", "country": "Turkey", "latitude": "41.058409", "longitude": "28.980815", "altitude": "331"}
        ,{"id": "sharling", "team": "t37", "name": "Zip Brewery", "municipality": "Ashgabat", "country": "Turkmenistan", "latitude": "38.058341222076564", "longitude": "58.18909349953946", "altitude": "896"}
        ,{"id": "harvin", "team": "t13", "name": "Uganda Breweries Limited", "municipality": "Kampala", "country": "Uganda", "latitude": "0.293548", "longitude": "32.653335", "altitude": "3763"}
        ,{"id": "ethanju", "team": "t32", "name": "Varvar Brew", "municipality": "Kyiv", "country": "Ukraine", "latitude": "50.2824", "longitude": "30.3526", "altitude": "344"}
        ,{"id": "goron117", "team": "t25", "name": "Aujan Industries Co.", "municipality": "Dubai", "country": " United Arab Emirates", "latitude": "24.977834", "longitude": "55.165449", "altitude": "0"}
        ,{"id": "jonwc", "team": "t23", "name": "Meantime Brewing Company", "municipality": "London", "country": "United Kingdom", "latitude": "51.489445", "longitude": "0.008490", "altitude": "2"}
        ,{"id": "dmcyde", "team": "t16", "name": "Montevideo Brew House", "municipality": "Montevideo", "country": "Uruguay", "latitude": "34.9104", "longitude": "56.1573", "altitude": "141"}
        ,{"id": "martel", "team": "t25", "name": "Carlsberg Uzbekistan", "municipality": "Tashkent", "country": "Uzbekistan", "latitude": "41.299751", "longitude": "69.353963", "altitude": "1504"}
        ,{"id": "cjbeall", "team": "t26", "name": "Cerveceria Tovar", "municipality": "Colonia Tovar", "country": "Venezuela", "latitude": "10.40724", "longitude": "-67.29041", "altitude": "6233"}
        ,{"id": "jackwob", "team": "t37", "name": "7 Bridges Brewing", "municipality": "Da Nang", "country": "Vietnam", "latitude": "16.074100", "longitude": "108.228900", "altitude": "141"}
        ,{"id": "bleple", "team": "t31", "name": "Wild Dog Beer", "municipality": "Lusaka", "country": "Zambia", "latitude": "-15.3855625", "longitude": "28.2688906", "altitude": "4140"}
        ,{"id": "dpoppa4", "team": "t38", "name": "Ngoda Breweries", "municipality": "Harare", "country": "Zimbabwe", "latitude": "-17.894047", "longitude": "31.231933", "altitude": "5066"}
    ]
}
